NAME, LAT, LON, RAW
Aag / Arik volcano, 53.31000, 158.60001, 53.31000&deg;N / 158.60001&deg;E
Mount Adams, 44.08700, -74.026, 44.08700&deg;N / 74.026&deg;W
313 Slab (Small Adventures Wall) (5.4-5.12), 38.65300, -109.72, 38.65300&deg;N / 109.72&deg;W
Achar de Alano, 42.84123, -0.78861, 42.84123&deg;N / 0.78861&deg;W
"A" Peak, 48.23842, -115.69874, 48.23842&deg;N / 115.69874&deg;W
71 Mountain, 37.93780, -107.2678, 37.93780&deg;N / 107.2678&deg;W
Abajo Peak, 37.83900, -109.462, 37.83900&deg;N / 109.462&deg;W
A'Ghlas-Bheinn, 57.25556, -5.30434, 57.25556&deg;N / 5.30434&deg;W
Mount Abraham VT, 44.12040, -72.9363, 44.12040&deg;N / 72.9363&deg;W
Adams Mountain, 48.50839, -114.68728, 48.50839&deg;N / 114.68728&deg;W
Abernathy Peak, 48.48000, -120.517, 48.48000&deg;N / 120.517&deg;W
Abdal Musa, 40.40850, 39.06674, 40.40850&deg;N / 39.06674&deg;E
2nd Meat Wall 5.9-5.13, 38.13050, -109.585, 38.13050&deg;N / 109.585&deg;W
50-40 Peak, 49.19166, -125.2824, 49.19166&deg;N / 125.2824&deg;W
Äbeni Flue, 46.50855, 7.95170, 46.50855&deg;N / 7.95170&deg;E
5.8 Sanctuary 5.4-5.10c, 30.24510, -97.7979, 30.24510&deg;N / 97.7979&deg;W
AB Mountain, 59.52889, -135.28333, 59.52889&deg;N / 135.28333&deg;W
Adelfoi, 34.95501, 32.99456, 34.95501&deg;N / 32.99456&deg;E
Acker Rock, 43.05300, -122.644, 43.05300&deg;N / 122.644&deg;W
Adder Mountain, 49.24875, -125.31753, 49.24875&deg;N / 125.31753&deg;W
Adelfoi, 34.95501, 32.99456, 34.95501&deg;N / 32.99456&deg;E
Mount Abraham ME, 44.97220, -70.3264, 44.97220&deg;N / 70.3264&deg;W
Abiel Peak, 47.35207, -121.46933, 47.35207&deg;N / 121.46933&deg;W
Abert Rim, 42.38838, -120.23446, 42.38838&deg;N / 120.23446&deg;W
6460 'Lost Peak', 37.20495, -112.91675, 37.20495&deg;N / 112.91675&deg;W
Abak, 35.98130, 51.51570, 35.98130&deg;N / 51.51570&deg;E
Volcán Acatenango, 14.50143, -90.87531, 14.50143&deg;N / 90.87531&deg;W
Adams Peak, 39.91060, -120.1003, 39.91060&deg;N / 120.1003&deg;W
Punta di l'Acellu, 41.80030, 9.21461, 41.80030&deg;N / 9.21461&deg;E
Ackerlspitze, 47.55907, 12.34756, 47.55907&deg;N / 12.34756&deg;E
A-1 Peak, 40.76810, -110.8332, 40.76810&deg;N / 110.8332&deg;W
Abel Peak (Peak 11516), 43.78650, -114.1368, 43.78650&deg;N / 114.1368&deg;W
Acropole des Draveurs, 49.75000, -70.55, 49.75000&deg;N / 70.55&deg;W
Adam Peak (NV), 41.16060, -117.3056, 41.16060&deg;N / 117.3056&deg;W
Cyprus, 35.03629, 33.23877, 35.03629&deg;N / 33.23877&deg;E
Adams Peak, 32.03390, -110.1157, 32.03390&deg;N / 110.1157&deg;W
Abercrombie Mountain, 48.92830, -117.4589, 48.92830&deg;N / 117.4589&deg;W
Mount Adams, 44.32000, -71.291, 44.32000&deg;N / 71.291&deg;W
Abbey Hill, 53.13946, -9.04507, 53.13946&deg;N / 9.04507&deg;W
Mount Adams, 46.20280, -121.4894, 46.20280&deg;N / 121.4894&deg;W
A2, 52.15119, -117.09984, 52.15119&deg;N / 117.09984&deg;W
A Muvrella, 42.41046, 8.91161, 42.41046&deg;N / 8.91161&deg;E
Mount Aberdeen, 51.37889, -116.24972, 51.37889&deg;N / 116.24972&deg;W
Aconcagua, -32.65, -70, 32.65&deg;S / 70&deg;W
Adamello, 46.15540, 10.49660, 46.15540&deg;N / 10.49660&deg;E
Acherito, 42.89720, -0.7422, 42.89720&deg;N / 0.7422&deg;W
Mount Achonee, 40.07250, -105.6784, 40.07250&deg;N / 105.6784&deg;W
Adams Mount, 38.00750, -105.6042, 38.00750&deg;N / 105.6042&deg;W
Adobe Range HP, 41.11363, -115.70837, 41.11363&deg;N / 115.70837&deg;W
Aiguille de Blaitière, 45.89930, 6.91360, 45.89930&deg;N / 6.91360&deg;E
Adolfo Calle, -32.972, -69.40242, 32.972&deg;S / 69.40242&deg;W
Cerro Ahuaca, -4.30413, -79.59475, 4.30413&deg;S / 79.59475&deg;W
Mount Aeneas, 50.42671, -115.78386, 50.42671&deg;N / 115.78386&deg;W
Mount Agamenticus, 43.22310, -70.692, 43.22310&deg;N / 70.692&deg;W
Agulhas Negras, -22.3796, -44.6618, 22.3796&deg;S / 44.6618&deg;W
Adventure Punks Wall 5.10a-5.11d, 36.11579, -115.50536, 36.11579&deg;N / 115.50536&deg;W
Agulha do Diabo, -22.4624, -43.0242, 22.4624&deg;S / 43.0242&deg;W
Agua Fria Peak, 36.36137, -105.2089, 36.36137&deg;N / 105.2089&deg;W
Afentis  / Αφέντης, 35.17002, 25.39967, 35.17002&deg;N / 25.39967&deg;E
AFPA Rock, 34.03926, -116.19442, 34.03926&deg;N / 116.19442&deg;W
Ararat, 39.46747, 44.41017, 39.46747&deg;N / 44.41017&deg;E
Agüerri, 42.79870, -0.6716, 42.79870&deg;N / 0.6716&deg;W
Aftershock Wall 5.10a-5.11b, 37.19330, -113.6425, 37.19330&deg;N / 113.6425&deg;W
Aiguille de Bellecombe, 45.84907, 7.09599, 45.84907&deg;N / 7.09599&deg;E
Adelsfelsen, 49.07913, 7.75106, 49.07913&deg;N / 7.75106&deg;E
Aguja de Alba, 42.65492, 0.61841, 42.65492&deg;N / 0.61841&deg;E
Adobe Peak, 38.20850, -105.1921, 38.20850&deg;N / 105.1921&deg;W
Agulhinha da Gávea, -22.98519, -43.27727, 22.98519&deg;S / 43.27727&deg;W
Mount Agassiz, 40.71110, -110.8228, 40.71110&deg;N / 110.8228&deg;W
Volcan de Agua, 14.46500, -90.743, 14.46500&deg;N / 90.743&deg;W
Agua Caliente Hill, 32.29540, -110.6659, 32.29540&deg;N / 110.6659&deg;W
Afentis Stavromenos / Αφέντης Σταυρομενοσ, 35.07966, 25.87543, 35.07966&deg;N / 25.87543&deg;E
Aiguille d'Entrèves, 45.84380, 6.91604, 45.84380&deg;N / 6.91604&deg;E
Aiguille d'Artanavaz or d'Arterèva also Guglia d'Artereva, 45.83349, 7.07861, 45.83349&deg;N / 7.07861&deg;E
Mount Agassiz, 37.11186, -118.53081, 37.11186&deg;N / 118.53081&deg;W
Afella 4043m, 31.05499, -7.95135, 31.05499&deg;N / 7.95135&deg;W
Hohe Aifner Spitze, 47.10434, 10.73167, 47.10434&deg;N / 10.73167&deg;E
Adi, 43.02875, -1.47217, 43.02875&deg;N / 1.47217&deg;W
Agung, -8.31809, 115.56939, 8.31809&deg;S / 115.56939&deg;E
Agujas St-Exupery Raphael & de la S (Patagonia), -49.28848, -73.03825, 49.28848&deg;S / 73.03825&deg;W
Agua Tibia Mountain, 33.40975, -116.98197, 33.40975&deg;N / 116.98197&deg;W
Aiguille Blanche de Peuterey, 45.82260, 6.88420, 45.82260&deg;N / 6.88420&deg;E
Afentis Christos / Αφέντης Χριστός, 35.09282, 25.47123, 35.09282&deg;N / 25.47123&deg;E
Adobe Mesa, 38.62910, -109.3173, 38.62910&deg;N / 109.3173&deg;W
Mount Agassiz (Desolation), 38.85770, -120.1692, 38.85770&deg;N / 120.1692&deg;W
Aguglia di Goloritzé, 40.10703, 9.69054, 40.10703&deg;N / 9.69054&deg;E
Ahornspitze, 47.12715, 11.92429, 47.12715&deg;N / 11.92429&deg;E
Aguja Poincenot (Patagonia), -49.27959, -73.04016, 49.27959&deg;S / 73.04016&deg;W
Ahern Peak, 48.84399, -113.78471, 48.84399&deg;N / 113.78471&deg;W
Aid Box, 38.99070, -77.2485, 38.99070&deg;N / 77.2485&deg;W
Aiguille de Blaitière, 45.89930, 6.91360, 45.89930&deg;N / 6.91360&deg;E
Agrihan, 18.76762, 145.66576, 18.76762&deg;N / 145.66576&deg;E
Agassiz Peak, 35.32580, -111.6772, 35.32580&deg;N / 111.6772&deg;W
Mont Blanc GROUP, 45.83120, 6.86770, 45.83120&deg;N / 6.86770&deg;E
Aiguille Croux, 45.80570, 6.88740, 45.80570&deg;N / 6.88740&deg;E
Aiguille d'Argentière, 45.96060, 7.01790, 45.96060&deg;N / 7.01790&deg;E
Aiguille Noire de Peuterey, 45.82000, 6.89430, 45.82000&deg;N / 6.89430&deg;E
Aiguille Des Glaciers, 45.77880, 6.80170, 45.77880&deg;N / 6.80170&deg;E
Aiguille du Moine, 45.91660, 6.96170, 45.91660&deg;N / 6.96170&deg;E
Aiguille de Malatrà or di Malatrat, 45.83810, 7.07745, 45.83810&deg;N / 7.07745&deg;E
Aiguille des Grands Charmoz, 45.90560, 6.91830, 45.90560&deg;N / 6.91830&deg;E
Aiguille du Tour, 45.99450, 7.01020, 45.99450&deg;N / 7.01020&deg;E
Aiguille de la Grande Sassière, 45.50532, 6.99988, 45.50532&deg;N / 6.99988&deg;E
Aiguille du Midi, 45.87890, 6.88780, 45.87890&deg;N / 6.88780&deg;E
Aiguilles des Angroniettes, 45.87200, 7.09228, 45.87200&deg;N / 7.09228&deg;E
Aiguilles du Dru (or Les Drus), 45.93270, 6.95570, 45.93270&deg;N / 6.95570&deg;E
Aiguille du Plat de la Selle, 44.96460, 6.22200, 44.96460&deg;N / 6.22200&deg;E
Aiguilles Marbrées, 45.85160, 6.94100, 45.85160&deg;N / 6.94100&deg;E
Aiguilles de Trélatéte, 45.79460, 6.80570, 45.79460&deg;N / 6.80570&deg;E
Aiguille du Goûter, 45.85120, 6.83060, 45.85120&deg;N / 6.83060&deg;E
Aiguille Orientale du Soreiller, 44.96680, 6.25714, 44.96680&deg;N / 6.25714&deg;E
Airola Peak, 38.45764, -119.81541, 38.45764&deg;N / 119.81541&deg;W
Aiguille de Leschaux, 45.88720, 7.00670, 45.88720&deg;N / 7.00670&deg;E
Aiguille Savoie, 45.90940, 7.01340, 45.90940&deg;N / 7.01340&deg;E
Aiguille de la Tsa, 46.02155, 7.52250, 46.02155&deg;N / 7.52250&deg;E
Aiguille de Toula, 45.84990, 6.92340, 45.84990&deg;N / 6.92340&deg;E
Aiguille de l'Aigle, 45.79505, 6.82992, 45.79505&deg;N / 6.82992&deg;E
Aiguille Savoie - Torre Rossa (Tour Rouge), 45.90491, 7.01741, 45.90491&deg;N / 7.01741&deg;E
Mount Aire, 40.72000, -111.6954, 40.72000&deg;N / 111.6954&deg;W
Aiguille de Chambeyron, 44.54780, 6.85800, 44.54780&deg;N / 6.85800&deg;E
Aiplspitz, 47.67318, 11.92372, 47.67318&deg;N / 11.92372&deg;E
Aiguille de Leisasse or Lesache, 45.85911, 7.11845, 45.85911&deg;N / 7.11845&deg;E
Aiguille du Peigne, -69.96153, -178.94908, 69.96153&deg;S / 178.94908&deg;W
Aiguille de la Gandolière, 44.97170, 6.27750, 44.97170&deg;N / 6.27750&deg;E
Aiguille de la Lex Blanche, 45.78698, 6.80380, 45.78698&deg;N / 6.80380&deg;E
Aiguille Verte de Valsorey, 45.91742, 7.28943, 45.91742&deg;N / 7.28943&deg;E
Ailefroide, 44.88420, 6.35320, 44.88420&deg;N / 6.35320&deg;E
Aiguilles des Luisettes de Valsorey, 45.90660, 7.27990, 45.90660&deg;N / 7.27990&deg;E
Aiguille de Triolet, 45.91750, 7.02500, 45.91750&deg;N / 7.02500&deg;E
Aiguille du Refuge, 45.95204, 6.99413, 45.95204&deg;N / 6.99413&deg;E
Aiguille de Talèfre, 45.90000, 7.00481, 45.90000&deg;N / 7.00481&deg;E
Aiguille de Rochefort, 45.86380, 6.96090, 45.86380&deg;N / 6.96090&deg;E
Aiguille Verte, 45.93550, 6.96860, 45.93550&deg;N / 6.96860&deg;E
Aiguille Pierre André, 44.57380, 6.85270, 44.57380&deg;N / 6.85270&deg;E
Aiguille de Saulié or des Ceingles, 45.84987, 7.11320, 45.84987&deg;N / 7.11320&deg;E
Aiguille du Plan, 45.89070, 6.90770, 45.89070&deg;N / 6.90770&deg;E
Southern Blonde, 36.58323, -118.11543, 36.58323&deg;N / 118.11543&deg;W
Aiseo, 33.68975, 76.26379, 33.68975&deg;N / 76.26379&deg;E
Earthday Dome, 36.58577, -118.10683, 36.58577&deg;N / 118.10683&deg;W
Al West Peak, 44.17771, -113.80051, 44.17771&deg;N / 113.80051&deg;W
Ahkka, 67.57677, 17.48199, 67.57677&deg;N / 17.48199&deg;E
Aizkorri, 42.95140, -2.3258, 42.95140&deg;N / 2.3258&deg;W
Thug Wall, 36.48465, -118.11338, 36.48465&deg;N / 118.11338&deg;W
Mount Alander, 42.08676, -73.47073, 42.08676&deg;N / 73.47073&deg;W
Elephant Rock & Leaning Tower of Pizza, 36.60614, -118.13055, 36.60614&deg;N / 118.13055&deg;W
Akrafjall, 64.34359, -21.94527, 64.34359&deg;N / 21.94527&deg;W
Rocky Top, 36.58459, -118.1132, 36.58459&deg;N / 118.1132&deg;W
Mount Aix, 46.79500, -121.2558, 46.79500&deg;N / 121.2558&deg;W
Mount Ajo, 32.03000, -112.69, 32.03000&deg;N / 112.69&deg;W
Truffle Tower, 36.60757, -118.13369, 36.60757&deg;N / 118.13369&deg;W
Aitana, 38.65038, -0.25983, 38.65038&deg;N / 0.25983&deg;W
Cattle Pocket, 36.60476, -118.12771, 36.60476&deg;N / 118.12771&deg;W
Alaska Mountain, 47.46326, -121.34674, 47.46326&deg;N / 121.34674&deg;W
Nice Tower 5.9-10b, 36.60595, -118.13101, 36.60595&deg;N / 118.13101&deg;W
Alamo Mountain, 32.03224, -105.63784, 32.03224&deg;N / 105.63784&deg;W
Ajusco, 19.04000, -99.26, 19.04000&deg;N / 99.26&deg;W
Alabama Dome, 36.58591, -118.11437, 36.58591&deg;N / 118.11437&deg;W
DXM Wall, 36.60612, -118.13092, 36.60612&deg;N / 118.13092&deg;W
Alamo Mountain, 34.66600, -118.959, 34.66600&deg;N / 118.959&deg;W
Alba Pico de, 42.65561, 0.62038, 42.65561&deg;N / 0.62038&deg;E
Arizona Dome, 36.58790, -118.11114, 36.58790&deg;N / 118.11114&deg;W
Alamoot Castle (The Alamoot Valley), 36.00000, 50.58330, 36.00000&deg;N / 50.58330&deg;E
Pirineos: Benasque, 42.63110, 0.68140, 42.63110&deg;N / 0.68140&deg;E
Alaneh Sarband & Sebrar, 36.29638, 51.02201, 36.29638&deg;N / 51.02201&deg;E
Alam Kooh Shakhak Number 1, 36.37560, 50.96440, 36.37560&deg;N / 50.96440&deg;E
Alaneh Sar, 36.30783, 50.99900, 36.30783&deg;N / 50.99900&deg;E
The Corridors East End, 36.60541, -118.12764, 36.60541&deg;N / 118.12764&deg;W
Ajax Peak, 45.33000, -113.73, 45.33000&deg;N / 113.73&deg;W
Hoodgie Wall, 36.60788, -118.13335, 36.60788&deg;N / 118.13335&deg;W
The Candy Store, 36.58257, -118.11328, 36.58257&deg;N / 118.11328&deg;W
Pillar of Thoth 5.7-11a, 36.60574, -118.12968, 36.60574&deg;N / 118.12968&deg;W
Alamo Hueco Highpoint, 31.44790, -108.3644, 31.44790&deg;N / 108.3644&deg;W
Nut Towers, 36.60689, -118.1319, 36.60689&deg;N / 118.1319&deg;W
Whitney Cave, 36.58206, -118.10406, 36.58206&deg;N / 118.10406&deg;W
Sunday Matinee Wall, 36.60492, -118.12848, 36.60492&deg;N / 118.12848&deg;W
Alba Pico de, 42.65561, 0.62038, 42.65561&deg;N / 0.62038&deg;E
Schmaltz Rock 5.7-10b, 36.60602, -118.12951, 36.60602&deg;N / 118.12951&deg;W
The Hideout, 36.59741, -118.12888, 36.59741&deg;N / 118.12888&deg;W
Lost Eye to the Moon, 36.60551, -118.12745, 36.60551&deg;N / 118.12745&deg;W
Oz, 36.61467, -118.1068, 36.61467&deg;N / 118.1068&deg;W
Peter Gabriel Cliff, 36.58523, -118.11126, 36.58523&deg;N / 118.11126&deg;W
Cima Al Bal, 45.83980, 10.79920, 45.83980&deg;N / 10.79920&deg;E
Alancic / Rozanski Vrh / Seravski Vrh, 44.72520, 14.98000, 44.72520&deg;N / 14.98000&deg;E
Alam Kooh, 36.37536, 50.96128, 36.37536&deg;N / 50.96128&deg;E
Maladeta Massif, 42.64240, 0.66340, 42.64240&deg;N / 0.66340&deg;E
Alger Alp ("Little Baldy"), 48.63431, -122.33896, 48.63431&deg;N / 122.33896&deg;W
Allsop Peaks, 40.77320, -110.68292, 40.77320&deg;N / 110.68292&deg;W
Alpine Peak, 39.68620, -105.682, 39.68620&deg;N / 105.682&deg;W
Alberta Jam 5.9-5.13aR, 51.32149, -115.34082, 51.32149&deg;N / 115.34082&deg;W
Allen Peak, 34.08050, -116.9867, 34.08050&deg;N / 116.9867&deg;W
Mount Allison, 37.50000, -121.87, 37.50000&deg;N / 121.87&deg;W
Alpamayo, -8.87878, -77.65352, 8.87878&deg;S / 77.65352&deg;W
Mount Sir Alexander, 53.93650, -120.3859, 53.93650&deg;N / 120.3859&deg;W
Alféo, 44.63190, 9.27530, 44.63190&deg;N / 9.27530&deg;E
Alberta Mount, 52.30000, -117.4666, 52.30000&deg;N / 117.4666&deg;W
Albert Mountain, 35.05240, -83.4775, 35.05240&deg;N / 83.4775&deg;W
La Alcazaba, 37.06723, -3.30122, 37.06723&deg;N / 3.30122&deg;W
Punta da l' Albigna, 46.33241, 9.65999, 46.33241&deg;N / 9.65999&deg;E
Alder Peak, 35.88470, -121.36982, 35.88470&deg;N / 121.36982&deg;W
Alpine Peak, 39.68620, -105.682, 39.68620&deg;N / 105.682&deg;W
Alexander Mountain, 40.42741, -105.25108, 40.42741&deg;N / 105.25108&deg;W
Alberta Peak, 37.45579, -106.79503, 37.45579&deg;N / 106.79503&deg;W
Alblitkopf, 47.08560, 10.33754, 47.08560&deg;N / 10.33754&deg;E
Alex Lowe Peak, 45.42713, -111.01444, 45.42713&deg;N / 111.01444&deg;W
Albaron di Savoia, 45.33284, 7.10223, 45.33284&deg;N / 7.10223&deg;E
Aldrich Butte, 45.65335, -121.97992, 45.65335&deg;N / 121.97992&deg;W
Alpesisa, 44.48074, 9.04175, 44.48074&deg;N / 9.04175&deg;E
Albrist, 46.49700, 7.48950, 46.49700&deg;N / 7.48950&deg;E
Alpine Baldy, 47.74222, -121.24652, 47.74222&deg;N / 121.24652&deg;W
Mount Alpenglow, 60.87500, -149.33372, 60.87500&deg;N / 149.33372&deg;W
Alpine Lookout, 47.81197, -120.86448, 47.81197&deg;N / 120.86448&deg;W
Aliso Peak, 33.50918, -117.7444, 33.50918&deg;N / 117.7444&deg;W
Allen Mountain, 44.07080, -73.94, 44.07080&deg;N / 73.94&deg;W
Allen Mountain, 48.75803, -113.65761, 48.75803&deg;N / 113.65761&deg;W
Mount Alderson, 49.02363, -113.96976, 49.02363&deg;N / 113.96976&deg;W
Aletschhorn, 46.46670, 7.98330, 46.46670&deg;N / 7.98330&deg;E
Almendron, 36.82512, -3.84011, 36.82512&deg;N / 3.84011&deg;W
Algonquin Peak, 44.14360, -73.9869, 44.14360&deg;N / 73.9869&deg;W
Maje e Arapit, 42.43765, 19.75616, 42.43765&deg;N / 19.75616&deg;E
Alma Negra, -32.1166, -70.1667, 32.1166&deg;S / 70.1667&deg;W
Allen Crags, 54.46625, -3.17943, 54.46625&deg;N / 3.17943&deg;W
Beinn Alligin, 57.59194, -5.5723, 57.59194&deg;N / 5.5723&deg;W
Mount Alice, 40.23950, -105.6632, 40.23950&deg;N / 105.6632&deg;W
Poncione d'Alnasca, 46.29215, 8.82339, 46.29215&deg;N / 8.82339&deg;E
Allison Ridge, 35.58073, -82.24342, 35.58073&deg;N / 82.24342&deg;W
UN 12349, "Almagre Mountain South", 38.77240, -104.9933, 38.77240&deg;N / 104.9933&deg;W
Alexandra Peak, 49.73756, -125.49176, 49.73756&deg;N / 125.49176&deg;W
Allalinhorn, 46.04581, 7.89576, 46.04581&deg;N / 7.89576&deg;E
Alphubel, 46.06277, 7.86389, 46.06277&deg;N / 7.86389&deg;E
Almagre Mountain, 38.79140, -104.9933, 38.79140&deg;N / 104.9933&deg;W
Almanzor, 40.24725, -5.29615, 40.24725&deg;N / 5.29615&deg;W
Allison Peak, 49.75045, -114.64396, 49.75045&deg;N / 114.64396&deg;W
Front Range, 39.58000, -105.64, 39.58000&deg;N / 105.64&deg;W
Alto Toroni, -19.753, -68.697, 19.753&deg;S / 68.697&deg;W
Alpine Peak, 44.17170, -115.0486, 44.17170&deg;N / 115.0486&deg;W
Alto dos Ivos Peak, -22.3943, -44.80356, 22.3943&deg;S / 44.80356&deg;W
Altschloßfelsen, 49.10350, 7.53730, 49.10350&deg;N / 7.53730&deg;E
"Amphitheatre Peak" (Peak 11369), 39.96840, -107.2399, 39.96840&deg;N / 107.2399&deg;W
Altavista de Gran Canaria, 28.01024, -15.70908, 28.01024&deg;N / 15.70908&deg;W
An Gearanach, 56.75898, -4.96659, 56.75898&deg;N / 4.96659&deg;W
Amor, 39.57341, -4.14828, 39.57341&deg;N / 4.14828&deg;W
Ampersand, 44.23460, -74.2027, 44.23460&deg;N / 74.2027&deg;W
Ameringkogel, 47.07114, 14.80828, 47.07114&deg;N / 14.80828&deg;E
Amphitheater Mountain, 48.97570, -120.1912, 48.97570&deg;N / 120.1912&deg;W
Amicalola Mountain, 34.59750, -84.2306, 34.59750&deg;N / 84.2306&deg;W
Al’s Crag 5.7-5.10b, 34.06989, -116.17167, 34.06989&deg;N / 116.17167&deg;W
Monte Altissimo di Nago, 45.81002, 10.88895, 45.81002&deg;N / 10.88895&deg;E
Alps Mountain, 39.72726, -105.59604, 39.72726&deg;N / 105.59604&deg;W
Altoona Hill, 46.27715, -123.63027, 46.27715&deg;N / 123.63027&deg;W
American Flag Mountain, 38.93280, -106.7181, 38.93280&deg;N / 106.7181&deg;W
Alta Mountain, 47.44080, -121.3308, 47.44080&deg;N / 121.3308&deg;W
Alta Peak, 36.59060, -118.6611, 36.59060&deg;N / 118.6611&deg;W
Amabilis Mountain, 47.29350, -121.2616, 47.29350&deg;N / 121.2616&deg;W
Alvord Peak, 42.34722, -118.70285, 42.34722&deg;N / 118.70285&deg;W
Altos de Uteza, 28.12831, -17.15519, 28.12831&deg;N / 17.15519&deg;W
Amagat Peak, 54.89660, -162.88107, 54.89660&deg;N / 162.88107&deg;W
Amin Brakk (Great Tower), 35.34986, 76.45729, 35.34986&deg;N / 76.45729&deg;E
Nevado Ampato, -15.8217, -71.8794, 15.8217&deg;S / 71.8794&deg;W
Ama Dablam, 27.86170, 86.86390, 27.86170&deg;N / 86.86390&deg;E
Alpspitze, 47.42939, 11.04821, 47.42939&deg;N / 11.04821&deg;E
An Gearanach, 56.75898, -4.96659, 56.75898&deg;N / 4.96659&deg;W
Amos & Andrew Peaks, 48.92440, -120.2326, 48.92440&deg;N / 120.2326&deg;W
Altels 3629m, 46.42934, 7.67738, 46.42934&deg;N / 7.67738&deg;E
American Peak, 37.89950, -107.5126, 37.89950&deg;N / 107.5126&deg;W
Alston Fin, 50.02100, -126.237, 50.02100&deg;N / 126.237&deg;W
An Caisteal, 56.34371, -4.60988, 56.34371&deg;N / 4.60988&deg;W
Mamore Range, 56.75395, -4.92582, 56.75395&deg;N / 4.92582&deg;W
Punta Alpini, 46.52663, 12.02711, 46.52663&deg;N / 12.02711&deg;E
Mount Alyeska, 60.95628, -149.05804, 60.95628&deg;N / 149.05804&deg;W
Alpine Walk Peak, 39.38352, -119.90723, 39.38352&deg;N / 119.90723&deg;W
Alvand, 34.75656, 48.40405, 34.75656&deg;N / 48.40405&deg;E
American Border Peak, 48.99530, -121.6649, 48.99530&deg;N / 121.6649&deg;W
Altair Peak, 43.79260, -114.0065, 43.79260&deg;N / 114.0065&deg;W
Ambrym Volcano, -16.26741, 168.12172, 16.26741&deg;S / 168.12172&deg;E
Altyn Peak, 48.81330, -113.6562, 48.81330&deg;N / 113.6562&deg;W
American Fork Twin Peaks, 40.55170, -111.6561, 40.55170&deg;N / 111.6561&deg;W
Amphitheater Mountain, 48.59970, -113.4876, 48.59970&deg;N / 113.4876&deg;W
Amole Peak, 32.27202, -111.15468, 32.27202&deg;N / 111.15468&deg;W
Altare dello Stincone, 42.06226, 14.11870, 42.06226&deg;N / 14.11870&deg;E
Grampian Mountains, 56.74370, -4.29016, 56.74370&deg;N / 4.29016&deg;W
Angour North Face, 31.17536, -7.82545, 31.17536&deg;N / 7.82545&deg;W
Mount Andromache, 51.48673, -116.15982, 51.48673&deg;N / 116.15982&deg;W
Andrews Bald, 35.54200, -83.493, 35.54200&deg;N / 83.493&deg;W
Andesite Peak, 39.35110, -120.367, 39.35110&deg;N / 120.367&deg;W
Anboto, 43.08800, -2.5967, 43.08800&deg;N / 2.5967&deg;W
Mount Anderson, 49.13481, -114.07946, 49.13481&deg;N / 114.07946&deg;W
Ancient Art, 38.72166, -109.30402, 38.72166&deg;N / 109.30402&deg;W
Angarillones, 42.22400, -1.42037, 42.22400&deg;N / 1.42037&deg;W
Angle Mountain, 43.82240, -110.14886, 43.82240&deg;N / 110.14886&deg;W
Ancient Kingdom 5.7-5.9, 34.08661, -116.15551, 34.08661&deg;N / 116.15551&deg;W
Anderson Peak, 34.12440, -116.8936, 34.12440&deg;N / 116.8936&deg;W
Angletarn Pikes, 54.52539, -2.90636, 54.52539&deg;N / 2.90636&deg;W
Anéou, 42.80186, -0.44928, 42.80186&deg;N / 0.44928&deg;W
Anaconda Peak (Gordon Ridge), 48.09580, -121.63144, 48.09580&deg;N / 121.63144&deg;W
Angerer Icegarden, 46.94651, 11.93802, 46.94651&deg;N / 11.93802&deg;E
Andy Nelson Peak, 37.36143, -112.82272, 37.36143&deg;N / 112.82272&deg;W
Mount Anderson (West Peak), 47.72320, -123.3495, 47.72320&deg;N / 123.3495&deg;W
Angel's Rest, 45.57488, -122.15207, 45.57488&deg;N / 122.15207&deg;W
Aniča kuk Stup, 44.34040, 15.47480, 44.34040&deg;N / 15.47480&deg;E
Anderson Mountain, 48.64062, -122.25701, 48.64062&deg;N / 122.25701&deg;W
An Teallach, 57.81185, -5.24734, 57.81185&deg;N / 5.24734&deg;W
Angels Landing, 37.23206, -112.9267, 37.23206&deg;N / 112.9267&deg;W
Angora Mountain, 36.26444, -118.44611, 36.26444&deg;N / 118.44611&deg;W
Aneroid Mountain, 45.20330, -117.1736, 45.20330&deg;N / 117.1736&deg;W
Angel Wing, 48.75750, -113.7106, 48.75750&deg;N / 113.7106&deg;W
Angel Food Wall 5.6-5.11a, 36.17000, -115.49083, 36.17000&deg;N / 115.49083&deg;W
Anderson Peak, 39.25900, -120.2971, 39.25900&deg;N / 120.2971&deg;W
Anhangava Hill, -25.38833, -49.00222, 25.38833&deg;S / 49.00222&deg;W
Ancohuma (Jankhouma Janq'uma), -15.51, -68.36, 15.51&deg;S / 68.36&deg;W
Anayet, 42.77610, -0.4593, 42.77610&deg;N / 0.4593&deg;W
Angell Pk/Lees Pk/Lakes L.O., 44.94170, -118.2298, 44.94170&deg;N / 118.2298&deg;W
Mount Andromeda, 52.17630, -117.2347, 52.17630&deg;N / 117.2347&deg;W
Mount Angelus, -41.90637, 172.74976, 41.90637&deg;S / 172.74976&deg;E
Anebos, 49.19264, 7.98205, 49.19264&deg;N / 7.98205&deg;E
Angemar II, 35.77382, 52.19167, 35.77382&deg;N / 52.19167&deg;E
Angels Perch, 43.79720, -114.0672, 43.79720&deg;N / 114.0672&deg;W
Andersdalstind, 69.41766, 19.22453, 69.41766&deg;N / 19.22453&deg;E
Aniča kuk Stup, 44.34040, 15.47480, 44.34040&deg;N / 15.47480&deg;E
Mount Angeles, 47.99540, -123.4672, 47.99540&deg;N / 123.4672&deg;W
Anderson Peak (UN 13631), 39.01220, -106.63015, 39.01220&deg;N / 106.63015&deg;W
Angemar I, 35.76797, 52.21277, 35.76797&deg;N / 52.21277&deg;E
Angora Peak (Oregon), 45.78780, -123.9203, 45.78780&deg;N / 123.9203&deg;W
Mount Anderson, 47.72100, -123.33, 47.72100&deg;N / 123.33&deg;W
Anica Kuk, 44.34040, 15.47480, 44.34040&deg;N / 15.47480&deg;E
Aneto, 42.63110, 0.66020, 42.63110&deg;N / 0.66020&deg;E
Andarai Maior, -22.9394, -43.2785, 22.9394&deg;S / 43.2785&deg;W
Ana Chata, -22.67018, -45.7055, 22.67018&deg;S / 45.7055&deg;W
Paklenica, 44.34040, 15.47480, 44.34040&deg;N / 15.47480&deg;E
Apex Mountain, 48.96158, -120.14536, 48.96158&deg;N / 120.14536&deg;W
Antelao Monte, 46.45229, 12.26143, 46.45229&deg;N / 12.26143&deg;E
Animas Mountain, 37.64310, -107.6291, 37.64310&deg;N / 107.6291&deg;W
Anthracite Mesa, 38.96184, -107.0455, 38.96184&deg;N / 107.0455&deg;W
Anthonys Nose, 31.95940, -106.4981, 31.95940&deg;N / 106.4981&deg;W
Anteater 5.7R-5.11b, 42.08243, -113.72169, 42.08243&deg;N / 113.72169&deg;W
Antelope Buttress, 29.87788, -9.09271, 29.87788&deg;N / 9.09271&deg;W
Annapurna I, 28.56670, 83.83330, 28.56670&deg;N / 83.83330&deg;E
Anvil Mountain, 37.83777, -107.70728, 37.83777&deg;N / 107.70728&deg;W
Antero Benchmark, 38.88470, -105.9767, 38.88470&deg;N / 105.9767&deg;W
Apgar Mountains (MT), 48.50657, -114.02647, 48.50657&deg;N / 114.02647&deg;W
Annapolis Rocks, 39.54979, -77.6033, 39.54979&deg;N / 77.6033&deg;W
Anielarra / Añelarra, 42.94010, -0.72977, 42.94010&deg;N / 0.72977&deg;W
Punta  Aouillette, 45.74360, 7.14330, 45.74360&deg;N / 7.14330&deg;E
Morro da Antena, -22.37695, -44.70267, 22.37695&deg;S / 44.70267&deg;W
Antimony Peak (San Emigdio Mtns.), 34.87700, -119.1122, 34.87700&deg;N / 119.1122&deg;W
Apache Peak, 33.71870, -116.626, 33.71870&deg;N / 116.626&deg;W
Mount Annie, 48.66136, -119.05385, 48.66136&deg;N / 119.05385&deg;W
Anthracite Range/Ohio Peak, 38.81440, -107.145, 38.81440&deg;N / 107.145&deg;W
Antola, 44.57440, 9.14980, 44.57440&deg;N / 9.14980&deg;E
Antler Butte, 43.86684, -102.27373, 43.86684&deg;N / 102.27373&deg;W
Ant Hill, 37.22675, -112.92135, 37.22675&deg;N / 112.92135&deg;W
Mount Antero, 38.67420, -106.2464, 38.67420&deg;N / 106.2464&deg;W
Apache Peak, 40.05800, -105.651, 40.05800&deg;N / 105.651&deg;W
Apache Peaks, 33.54030, -110.74259, 33.54030&deg;N / 110.74259&deg;W
Antoinette Peak, 43.39438, -110.40959, 43.39438&deg;N / 110.40959&deg;W
Añisclo / Soum de Ramond, 42.66960, 0.04320, 42.66960&deg;N / 0.04320&deg;E
Aorai (Tahiti), -17.61732, -149.52644, 17.61732&deg;S / 149.52644&deg;W
Mount Ansel Adams, 37.69798, -119.2817, 37.69798&deg;N / 119.2817&deg;W
Aperture Peak, 37.11821, -118.53074, 37.11821&deg;N / 118.53074&deg;W
Ankogel, 47.05050, 13.24950, 47.05050&deg;N / 13.24950&deg;E
Antares Peak, 43.64930, -113.905, 43.64930&deg;N / 113.905&deg;W
Apgar Mountain and Lookout (GNP), 48.51806, -114.01972, 48.51806&deg;N / 114.01972&deg;W
Antrim Peak, 50.60824, -116.48169, 50.60824&deg;N / 116.48169&deg;W
Antora Peak, 38.32500, -106.2181, 38.32500&deg;N / 106.2181&deg;W
Aonach Eagach, 56.68100, -5.002, 56.68100&deg;N / 5.002&deg;W
Mount Ann, 48.81650, -121.665, 48.81650&deg;N / 121.665&deg;W
Ant Knolls (UT), 40.55110, -111.5695, 40.55110&deg;N / 111.5695&deg;W
Animal Cracker 5.6-5.11d, 42.08716, -113.72298, 42.08716&deg;N / 113.72298&deg;W
Antone Mountain, 43.25410, -73.191, 43.25410&deg;N / 73.191&deg;W
Apache Peak (Whetstone Mtns), 31.82500, -110.4296, 31.82500&deg;N / 110.4296&deg;W
Antler Peak, 46.91990, -121.6322, 46.91990&deg;N / 121.6322&deg;W
Apache Peak - New River AZ, 33.86646, -112.03206, 33.86646&deg;N / 112.03206&deg;W
Anie, 42.95070, -0.7231, 42.95070&deg;N / 0.7231&deg;W
Anthony's Nose, 41.31908, -73.9761, 41.31908&deg;N / 73.9761&deg;W
Aouille Tseucca or Aouille Tseque, 45.93010, 7.44285, 45.93010&deg;N / 7.44285&deg;E
Apgar Mountain and Lookout (GNP), 48.51806, -114.01972, 48.51806&deg;N / 114.01972&deg;W
Aoraki - Cook, -43.6, 170.14999, 43.6&deg;S / 170.14999&deg;E
Anzotiello, 42.87760, -0.749, 42.87760&deg;N / 0.749&deg;W
Glacier National Park MT, 48.69700, -113.717, 48.69700&deg;N / 113.717&deg;W
Araçatuba Peak (aka Araçapurna), -25.90228, -48.99351, 25.90228&deg;S / 48.99351&deg;W
Mount Apo, 6.98828, 125.27109, 6.98828&deg;N / 125.27109&deg;E
Aratz, 42.92098, -2.30481, 42.92098&deg;N / 2.30481&deg;W
Arbor Wall (5.7-5.11c), 30.36458, -98.12635, 30.36458&deg;N / 98.12635&deg;W
Apple Orchard Mountain, 37.51690, -79.5106, 37.51690&deg;N / 79.5106&deg;W
Aristocrat Peak, 42.78781, -102.9743, 42.78781&deg;N / 102.9743&deg;W
Arbizon, 42.87395, 0.28839, 42.87395&deg;N / 0.28839&deg;E
Applegate Peak, 42.89976, -122.10489, 42.89976&deg;N / 122.10489&deg;W
Apple Pie Hill, 39.80722, -74.58927, 39.80722&deg;N / 74.58927&deg;W
April Peak, 47.75240, -123.12335, 47.75240&deg;N / 123.12335&deg;W
Mount Arkansas, 39.33250, -106.1785, 39.33250&deg;N / 106.1785&deg;W
Mt. Argus, 49.53886, -125.38628, 49.53886&deg;N / 125.38628&deg;W
Arnales, 42.78125, -0.25471, 42.78125&deg;N / 0.25471&deg;W
Mount Appleton (and "Cotleton"), 47.94500, -123.73482, 47.94500&deg;N / 123.73482&deg;W
Aries Butte, 37.23250, -112.9077, 37.23250&deg;N / 112.9077&deg;W
Aran Fawddwy & Aran Benllyn, 52.78000, -3.68, 52.78000&deg;N / 3.68&deg;W
Arnplattenspitze, 47.39263, 11.20910, 47.39263&deg;N / 11.20910&deg;E
Armstrong Mountain, 44.13450, -73.8499, 44.13450&deg;N / 73.8499&deg;W
Arabia Mountain, 33.66500, -84.11839, 33.66500&deg;N / 84.11839&deg;W
Arc Dome, 38.83440, -117.3535, 38.83440&deg;N / 117.3535&deg;W
Arctic Point, 34.31961, -116.89348, 34.31961&deg;N / 116.89348&deg;W
Punta di l'Ariettu, 41.80129, 9.21423, 41.80129&deg;N / 9.21423&deg;E
Argonaut Peak, 47.47007, -120.8615, 47.47007&deg;N / 120.8615&deg;W
"Arch Rock", 38.93900, -105.403, 38.93900&deg;N / 105.403&deg;W
Arlet, 42.83570, -0.6125, 42.83570&deg;N / 0.6125&deg;W
Mount Arethusa, 50.60690, -114.9667, 50.60690&deg;N / 114.9667&deg;W
Archer Mountain, 45.62030, -122.0999, 45.62030&deg;N / 122.0999&deg;W
Aragats  (&#1040;&#1088;&#1072;&#1075;&#1072;&#1094;), 40.60000, 44.10000, 40.60000&deg;N / 44.10000&deg;E
Wettersteingebirge, 47.43000, 11.05000, 47.43000&deg;N / 11.05000&deg;E
Ardiden, 42.83400, -0.0676, 42.83400&deg;N / 0.0676&deg;W
El Cerro del Aripo, 10.72939, -61.24364, 10.72939&deg;N / 61.24364&deg;W
Arches Peak, 48.55952, -120.85332, 48.55952&deg;N / 120.85332&deg;W
Arch Mountain Lake Mead, 36.13525, -114.5589, 36.13525&deg;N / 114.5589&deg;W
Arjuna, -7.743, 112.35000, 7.743&deg;S / 112.35000&deg;E
Argon Tower, 38.63310, -109.6023, 38.63310&deg;N / 109.6023&deg;W
Ärmighorn SW-Vorgipfel, 46.53885, 7.71266, 46.53885&deg;N / 7.71266&deg;E
Arista de Humboldt, 19.11010, -99.74683, 19.11010&deg;N / 99.74683&deg;W
Arnot Peak, 38.47254, -119.75976, 38.47254&deg;N / 119.75976&deg;W
Arnplattenspitze, 47.39263, 11.20910, 47.39263&deg;N / 11.20910&deg;E
Armstrong Mountain, 48.99800, -119.939, 48.99800&deg;N / 119.939&deg;W
Armer Mountain, 33.82080, -111.0109, 33.82080&deg;N / 111.0109&deg;W
Mount Argentine, 39.43250, -106.015, 39.43250&deg;N / 106.015&deg;W
Arenig Fawr ( UNDER EDIT...! ), 52.91660, -3.7459, 52.91660&deg;N / 3.7459&deg;W
Apikuni Mountain, 48.83600, -113.65434, 48.83600&deg;N / 113.65434&deg;W
Pic d' Aret, 42.74601, 0.26711, 42.74601&deg;N / 0.26711&deg;E
Appistoki Peak (GNP), 48.46760, -113.354, 48.46760&deg;N / 113.354&deg;W
Argentine Peak, 39.61210, -105.777, 39.61210&deg;N / 105.777&deg;W
Arête des Vans, 45.87400, 7.13970, 45.87400&deg;N / 7.13970&deg;E
Arrowhead 5.10a-5.12a, 34.07177, -116.14056, 34.07177&deg;N / 116.14056&deg;W
Atalaya Mountain, 35.66750, -105.8761, 35.66750&deg;N / 105.8761&deg;W
Asbestos Mountain , 33.62773, -116.45907, 33.62773&deg;N / 116.45907&deg;W
Mount Athos (Agio Oros), 40.15840, 24.32750, 40.15840&deg;N / 24.32750&deg;E
Aspe, 42.76350, -0.5658, 42.76350&deg;N / 0.5658&deg;W
Mount Aspiring, -44.3833, 168.73331, 44.3833&deg;S / 168.73331&deg;E
Arriel, 42.83531, -0.3302, 42.83531&deg;N / 0.3302&deg;W
Atalaya de Femes, 28.91868, -13.78422, 28.91868&deg;N / 13.78422&deg;W
Arrowhead, 40.26830, -105.6497, 40.26830&deg;N / 105.6497&deg;W
Asa da Hermes rock, -22.37543, -44.66389, 22.37543&deg;S / 44.66389&deg;W
Pic d' Arriouère / Pico del Ibonet, 42.71625, 0.25990, 42.71625&deg;N / 0.25990&deg;E
Arvals Peak, 43.96510, -115.1199, 43.96510&deg;N / 115.1199&deg;W
Arrowhead Arete, 37.75857, -119.5897, 37.75857&deg;N / 119.5897&deg;W
Mount Asgard, 66.44000, -65.16, 66.44000&deg;N / 65.16&deg;W
Mount Ascutney, 43.44359, -72.45424, 43.44359&deg;N / 72.45424&deg;W
Atascosa Peak, 31.43300, -111.147, 31.43300&deg;N / 111.147&deg;W
Asian Fever Buttress 5.4-5.7, 34.07059, -116.17045, 34.07059&deg;N / 116.17045&deg;W
Arpelistock, 46.34290, 7.31449, 46.34290&deg;N / 7.31449&deg;E
Mount Arriva, 48.54910, -120.8562, 48.54910&deg;N / 120.8562&deg;W
Assiniboine, 50.86670, -115.65, 50.86670&deg;N / 115.65&deg;W
Asselstein, 49.18768, 7.95998, 49.18768&deg;N / 7.95998&deg;E
Boundary Peak, 52.15540, -117.05383, 52.15540&deg;N / 117.05383&deg;W
Punta di  Arpisson, 45.64099, 7.36007, 45.64099&deg;N / 7.36007&deg;E
Wet Peak, 43.99290, -113.5378, 43.99290&deg;N / 113.5378&deg;W
Grand Aiguille, 44.09091, -114.98386, 44.09091&deg;N / 114.98386&deg;W
Arrowhead Mountain, 47.75780, -120.9642, 47.75780&deg;N / 120.9642&deg;W
Arrow Peak, 37.69290, -107.6103, 37.69290&deg;N / 107.6103&deg;W
Mayan Temple, 44.06110, -115.0481, 44.06110&deg;N / 115.0481&deg;W
Arrow Mountain, 43.37312, -109.5584, 43.37312&deg;N / 109.5584&deg;W
Aspen Butte, 42.31600, -122.086, 42.31600&deg;N / 122.086&deg;W
Ober Äschhorn / Unter Äschhorn, 46.06052, 7.70730, 46.06052&deg;N / 7.70730&deg;E
Ashtar Tower 5.8-5.11 (aka Ataxia Tower), 37.21060, -112.9614, 37.21060&deg;N / 112.9614&deg;W
Artemisio, 37.60675, 22.52571, 37.60675&deg;N / 22.52571&deg;E
Mount Arvon, 46.75600, -88.156, 46.75600&deg;N / 88.156&deg;W
Arthur's Seat, 55.95000, -3.22, 55.95000&deg;N / 3.22&deg;W
Arrow Canyon Range, 36.66330, -114.8873, 36.66330&deg;N / 114.8873&deg;W
Ash Creek Butte, 41.44800, -122.048, 41.44800&deg;N / 122.048&deg;W
Mount Athabasca, 52.18100, -117.2011, 52.18100&deg;N / 117.2011&deg;W
Arrow Peak, 45.33549, -110.55325, 45.33549&deg;N / 110.55325&deg;W
Ashlar's Ridge, 53.18217, -117.82562, 53.18217&deg;N / 117.82562&deg;W
Arrow Peak, 36.92840, -118.49098, 36.92840&deg;N / 118.49098&deg;W
Sawtooth Range, 44.10090, -114.9777, 44.10090&deg;N / 114.9777&deg;W
Mount Ashland, 42.08070, -122.7172, 42.08070&deg;N / 122.7172&deg;W
Aroletta Superiore, 45.89228, 7.38384, 45.89228&deg;N / 7.38384&deg;E
Grand Aiguille, 44.09091, -114.98386, 44.09091&deg;N / 114.98386&deg;W
Artesonraju, -8.9583, -77.6333, 8.9583&deg;S / 77.6333&deg;W
Arthur's Rock, 40.56660, -105.1833, 40.56660&deg;N / 105.1833&deg;W
Atashkooh, 35.90648, 51.68438, 35.90648&deg;N / 51.68438&deg;E
Greylock Mountain, 43.84411, -115.09581, 43.84411&deg;N / 115.09581&deg;W
Jebel Attuf, 30.32020, 35.44800, 30.32020&deg;N / 35.44800&deg;E
Augstenberg, 46.86465, 10.20381, 46.86465&deg;N / 10.20381&deg;E
Avalanche Mountain, 47.46939, -121.43048, 47.46939&deg;N / 121.43048&deg;W
Flat Top Mountain, 43.91760, -115.1348, 43.91760&deg;N / 115.1348&deg;W
Avalanche Mountain, 61.06213, -149.52551, 61.06213&deg;N / 149.52551&deg;W
Avalanche Peak, -42.94307, 171.53600, 42.94307&deg;S / 171.53600&deg;E
Atlantis 5.5-5.10c, 34.01880, -116.18001, 34.01880&deg;N / 116.18001&deg;W
Auza, 43.15236, -1.41917, 43.15236&deg;N / 1.41917&deg;W
Cima Avostanis/Blaustein, 46.60184, 13.02179, 46.60184&deg;N / 13.02179&deg;E
Augusta Mountain, 38.97220, -107.1062, 38.97220&deg;N / 107.1062&deg;W
Monte Avvocata (Monti Lattari), 40.65307, 14.66881, 40.65307&deg;N / 14.66881&deg;E
Mount Avalon, 44.20600, -71.429, 44.20600&deg;N / 71.429&deg;W
Axis Peak, 47.50826, -120.87382, 47.50826&deg;N / 120.87382&deg;W
Augspurger Mountain, 45.75340, -121.7089, 45.75340&deg;N / 121.7089&deg;W
Avenues Twin Peaks, 40.79490, -111.8413, 40.79490&deg;N / 111.8413&deg;W
Auf der Mussen, 46.71872, 12.91341, 46.71872&deg;N / 12.91341&deg;E
Äußerer Hahlkogel, 47.02409, 10.95303, 47.02409&deg;N / 10.95303&deg;E
Awu, 3.68954, 125.46181, 3.68954&deg;N / 125.46181&deg;E
Azad Kooh, 36.16980, 51.50280, 36.16980&deg;N / 51.50280&deg;E
Mount Aylmer, 51.32500, -115.432, 51.32500&deg;N / 115.432&deg;W
Augstbordhorn, 46.23539, 7.79437, 46.23539&deg;N / 7.79437&deg;E
Aubineau Peak and Rees Peak, 35.35530, -111.6592, 35.35530&deg;N / 111.6592&deg;W
Avachinskaja sopka, 53.23000, 158.80000, 53.23000&deg;N / 158.80000&deg;E
Scenic Peak, 43.90865, -115.1382, 43.90865&deg;N / 115.1382&deg;W
Atlantic Peak, 39.41350, -106.1259, 39.41350&deg;N / 106.1259&deg;W
Äußerer Nockenkopf / Dosso di Fuori, 46.82437, 10.46067, 46.82437&deg;N / 10.46067&deg;E
Augstenberg, 47.04000, 9.36000, 47.04000&deg;N / 9.36000&deg;E
Avawatz Mountain, 35.51300, -116.332, 35.51300&deg;N / 116.332&deg;W
Mont Avril, 45.91530, 7.34410, 45.91530&deg;N / 7.34410&deg;E
Auxier Ridge, 37.83697, -83.68484, 37.83697&deg;N / 83.68484&deg;W
Austin Bluffs, 38.89620, -104.8025, 38.89620&deg;N / 104.8025&deg;W
Blizzard Mountain, 43.87466, -115.07845, 43.87466&deg;N / 115.07845&deg;W
Austin Mountain, 38.26170, -78.7519, 38.26170&deg;N / 78.7519&deg;W
Austria Peak, -16.1898, -68.25804, 16.1898&deg;S / 68.25804&deg;W
Aucanquilcha volcano, -21.2167, -68.4667, 21.2167&deg;S / 68.4667&deg;W
Azad Kooh, 36.16980, 51.50280, 36.16980&deg;N / 51.50280&deg;E
Austin Hill, 48.68930, -122.3267, 48.68930&deg;N / 122.3267&deg;W
Mount Audubon, 40.09890, -105.6164, 40.09890&deg;N / 105.6164&deg;W
The Atrium, 38.98740, -77.2463, 38.98740&deg;N / 77.2463&deg;W
Austera Peak, 48.56930, -121.1021, 48.56930&deg;N / 121.1021&deg;W
Augerpoint Mountain, 49.67056, -125.47195, 49.67056&deg;N / 125.47195&deg;W
Mount Axtell, 38.83810, -107.0365, 38.83810&deg;N / 107.0365&deg;W
Averau, 46.50108, 12.03730, 46.50108&deg;N / 12.03730&deg;E
Avalanche Peak, 44.48970, -110.1403, 44.48970&deg;N / 110.1403&deg;W
Augustine Volcano, 59.36203, -153.43188, 59.36203&deg;N / 153.43188&deg;W
Imouzzer, 31.06587, -7.91318, 31.06587&deg;N / 7.91318&deg;W
Central Alborz Mountains, 36.00000, 51.50000, 36.00000&deg;N / 51.50000&deg;E
Austin Peak, 43.79210, -109.9783, 43.79210&deg;N / 109.9783&deg;W
Kholeno (Paloon Gardan) Massif, 36.10000, 51.52000, 36.10000&deg;N / 51.52000&deg;E
Baby Rubicon 5.7-5.11c, 37.33500, -113.6875, 37.33500&deg;N / 113.6875&deg;W
Backdrop Peak, 43.68930, -114.6857, 43.68930&deg;N / 114.6857&deg;W
Babbitt Peak, 39.60246, -120.10563, 39.60246&deg;N / 120.10563&deg;W
Baciás, 42.75240, -0.1965, 42.75240&deg;N / 0.1965&deg;W
Baboquivari Peak, 31.77110, -111.595, 31.77110&deg;N / 111.595&deg;W
Azurite Peak, 48.65680, -120.752, 48.65680&deg;N / 120.752&deg;W
Badger Mountain, 39.04900, -105.5126, 39.04900&deg;N / 105.5126&deg;W
Badanj, 44.10041, 16.32294, 44.10041&deg;N / 16.32294&deg;E
Backbone Rock (Holston Mountain), 36.59400, -81.814, 36.59400&deg;N / 81.814&deg;W
Bakening volcano, 53.90500, 158.07001, 53.90500&deg;N / 158.07001&deg;E
Bacon Peak, 48.66282, -121.52039, 48.66282&deg;N / 121.52039&deg;W
Bake Oven Knob, 40.74868, -75.73376, 40.74868&deg;N / 75.73376&deg;W
Bad Rock Peak, 44.07405, -113.72636, 44.07405&deg;N / 113.72636&deg;W
Babouche Buttress, 29.78865, -9.1056, 29.78865&deg;N / 9.1056&deg;W
Mount Bago, 36.77013, -118.43805, 36.77013&deg;N / 118.43805&deg;W
Babadag, 36.53000, 29.18000, 36.53000&deg;N / 29.18000&deg;E
Bailey Peak, 42.89800, -109.339, 42.89800&deg;N / 109.339&deg;W
Backbone Mountain, 39.24502, -79.48557, 39.24502&deg;N / 79.48557&deg;W
Mount Bailey, 39.41518, -105.45982, 39.41518&deg;N / 105.45982&deg;W
Volcán Azufral , 1.08518, -77.71866, 1.08518&deg;N / 77.71866&deg;W
Baby Blue, 47.93981, -121.7413, 47.93981&deg;N / 121.7413&deg;W
Baerenbadegg / Croda Negra, 46.65574, 12.60321, 46.65574&deg;N / 12.60321&deg;E
Bächenstock, 46.76668, 8.53672, 46.76668&deg;N / 8.53672&deg;E
Babel Tower, 35.91845, -81.91953, 35.91845&deg;N / 81.91953&deg;W
Badus - Six Madun, 46.62241, 8.66384, 46.62241&deg;N / 8.66384&deg;E
Backelstein, 49.18217, 7.85373, 49.18217&deg;N / 7.85373&deg;E
Mount Bailey, 43.15510, -122.2201, 43.15510&deg;N / 122.2201&deg;W
Babia Góra / Babia hora, 49.57320, 19.53080, 49.57320&deg;N / 19.53080&deg;E
Badger Mountain, 46.23347, -119.31835, 46.23347&deg;N / 119.31835&deg;W
Bachelor Mountain, 44.62890, -122.0119, 44.62890&deg;N / 122.0119&deg;W
Aztec Peak, 33.81200, -110.905, 33.81200&deg;N / 110.905&deg;W
Badacsony, 46.78300, 17.50000, 46.78300&deg;N / 17.50000&deg;E
Puma Hills, 39.15420, -105.5835, 39.15420&deg;N / 105.5835&deg;W
Mount Bachelor, 43.97970, -121.6892, 43.97970&deg;N / 121.6892&deg;W
Babji Zub (Torna), 42.90700, 19.40700, 42.90700&deg;N / 19.40700&deg;E
Baker Mountain, 44.33492, -74.10353, 44.33492&deg;N / 74.10353&deg;W
Bachimala, 42.69970, 0.39561, 42.69970&deg;N / 0.39561&deg;E
Cerro Azulcocha, -10.29012, -76.85754, 10.29012&deg;S / 76.85754&deg;W
The Tarryall, 39.22250, -105.6056, 39.22250&deg;N / 105.6056&deg;W
Badger Mountain (NV), 37.35160, -115.326, 37.35160&deg;N / 115.326&deg;W
"Badlands Peak", 36.40590, -116.8264, 36.40590&deg;N / 116.8264&deg;W
Baden-Powell, 34.35860, -117.7636, 34.35860&deg;N / 117.7636&deg;W
Cerro Bailey Willis, -41.12391, -71.58812, 41.12391&deg;S / 71.58812&deg;W
Baker Mountain, 39.21930, -105.6865, 39.21930&deg;N / 105.6865&deg;W
Baker Mountain, 39.21930, -105.6865, 39.21930&deg;N / 105.6865&deg;W
Baffelan, 45.73434, 11.17696, 45.73434&deg;N / 11.17696&deg;E
Badet, 42.79726, 0.10381, 42.79726&deg;N / 0.10381&deg;E
Badger Mountain (WA), 47.58378, -120.1474, 47.58378&deg;N / 120.1474&deg;W
Bald Mountain, 42.92218, -73.1438, 42.92218&deg;N / 73.1438&deg;W
Baker Mountain, 40.37610, -106.6009, 40.37610&deg;N / 106.6009&deg;W
Baker Mountain, 40.38170, -105.90636, 40.38170&deg;N / 105.90636&deg;W
Bald Mountain (Kaisoots Mountain), 48.96750, -121.961, 48.96750&deg;N / 121.961&deg;W
Bald Mountain (NV), 39.02060, -114.3217, 39.02060&deg;N / 114.3217&deg;W
Bald Peak, 33.75610, -117.5362, 33.75610&deg;N / 117.5362&deg;W
Baker Peak, 43.66990, -114.6798, 43.66990&deg;N / 114.6798&deg;W
Bald Mountain (Antrim/Hancock), 43.02190, -72.0309, 43.02190&deg;N / 72.0309&deg;W
Bald Mountain, 38.78110, -106.0332, 38.78110&deg;N / 106.0332&deg;W
Bald Hill SW0.5 - Cass County High Point, 41.94552, -85.83062, 41.94552&deg;N / 85.83062&deg;W
Bald  Mountain (Kalmiopsis OR), 42.43890, -123.9133, 42.43890&deg;N / 123.9133&deg;W
Balanesti, 47.21750, 28.08360, 47.21750&deg;N / 28.08360&deg;E
Bald Mountain, 37.16000, -121.866, 37.16000&deg;N / 121.866&deg;W
Baker Peak, 38.96870, -114.309, 38.96870&deg;N / 114.309&deg;W
Bald Mountain, 36.02000, -118.253, 36.02000&deg;N / 118.253&deg;W
Baker Peak, 35.86033, -118.52134, 35.86033&deg;N / 118.52134&deg;W
Bald Knob, 39.22298, -106.73546, 39.22298&deg;N / 106.73546&deg;W
Bald Knoll, 39.00317, -111.96521, 39.00317&deg;N / 111.96521&deg;W
Bald Hill, 44.56600, -123.335, 44.56600&deg;N / 123.335&deg;W
Bald Knoll (UT), 40.41879, -111.22383, 40.41879&deg;N / 111.22383&deg;W
Bald Mountain, 40.68351, -108.11969, 40.68351&deg;N / 108.11969&deg;W
Bald Mountain (NV), 39.02060, -114.3217, 39.02060&deg;N / 114.3217&deg;W
Bald Mountain, 43.86910, -109.2821, 43.86910&deg;N / 109.2821&deg;W
Bald Eagle Mountain, 47.95753, -121.25136, 47.95753&deg;N / 121.25136&deg;W
Bald Mountain (Baldy), 43.65500, -114.4083, 43.65500&deg;N / 114.4083&deg;W
Bald Mountain, 44.39994, -114.70413, 44.39994&deg;N / 114.70413&deg;W
Bald Knob, 40.11500, -79.203, 40.11500&deg;N / 79.203&deg;W
Bald Mountain, 40.60874, -111.48128, 40.60874&deg;N / 111.48128&deg;W
Bald Mountain Lookout, 47.03194, -116.57194, 47.03194&deg;N / 116.57194&deg;W
Bald Mountain (ID), 44.36721, -114.34396, 44.36721&deg;N / 114.34396&deg;W
Bald Mountain, 44.79020, -107.8318, 44.79020&deg;N / 107.8318&deg;W
Bald Mountain  (OR), 43.27430, -121.3541, 43.27430&deg;N / 121.3541&deg;W
Bald Mountain, 38.55250, -106.3507, 38.55250&deg;N / 106.3507&deg;W
Great Basin National Park, 38.98356, -114.29997, 38.98356&deg;N / 114.29997&deg;W
Baker Peak, 43.32420, -72.9619, 43.32420&deg;N / 72.9619&deg;W
Bald Mountain, 40.79250, -111.6488, 40.79250&deg;N / 111.6488&deg;W
Bald Hill (Marin County), 37.96728, -122.5803, 37.96728&deg;N / 122.5803&deg;W
Bald Eagle Peak, 47.61687, -121.27163, 47.61687&deg;N / 121.27163&deg;W
Bald Mountain, 39.13724, -104.84897, 39.13724&deg;N / 104.84897&deg;W
Bald Mountain, 40.69900, -110.902, 40.69900&deg;N / 110.902&deg;W
Bald Mountain (Cavanaugh), 48.36580, -122.0448, 48.36580&deg;N / 122.0448&deg;W
Bald Mountain, 40.55881, -105.83703, 40.55881&deg;N / 105.83703&deg;W
Baker Point, 35.85278, -118.5025, 35.85278&deg;N / 118.5025&deg;W
Balaitous, 42.83890, -0.2903, 42.83890&deg;N / 0.2903&deg;W
Bald Mountain, 39.67830, -106.33, 39.67830&deg;N / 106.33&deg;W
Bald Mountain, 39.44390, -105.9689, 39.44390&deg;N / 105.9689&deg;W
Mount Baker, 48.77750, -121.8119, 48.77750&deg;N / 121.8119&deg;W
Bald Mountain B, 40.86580, -110.5012, 40.86580&deg;N / 110.5012&deg;W
Mount Baldy  (UT), 40.56790, -111.6375, 40.56790&deg;N / 111.6375&deg;W
Balkan Dome 5.8-5.11d, 37.19330, -113.6425, 37.19330&deg;N / 113.6425&deg;W
Baldy Peak (Organ Mountains), 32.32200, -106.5606, 32.32200&deg;N / 106.5606&deg;W
Mount Baldy (Mt. Lookout), 47.44797, -88.10233, 47.44797&deg;N / 88.10233&deg;W
Little Baldy, 40.35730, -111.65124, 40.35730&deg;N / 111.65124&deg;W
Baldy Alto, 38.00530, -106.9216, 38.00530&deg;N / 106.9216&deg;W
Bald Mountain (Wasatch), 39.87700, -111.758, 39.87700&deg;N / 111.758&deg;W
Bald Mountain Camden, 44.22960, -69.1365, 44.22960&deg;N / 69.1365&deg;W
Bald Mountain (Rondaxe Firetower), 43.72552, -74.93857, 43.72552&deg;N / 74.93857&deg;W
Bald Mountain-Washington Township, 44.64694, -70.35111, 44.64694&deg;N / 70.35111&deg;W
Bald Mountain (Sonoma CA), 38.45750, -122.5094, 38.45750&deg;N / 122.5094&deg;W
Baldy Cinco, 37.95539, -107.10288, 37.95539&deg;N / 107.10288&deg;W
Balkan Dome 5.8-5.11d, 37.19330, -113.6425, 37.19330&deg;N / 113.6425&deg;W
Baldy Peak (Oregon), 42.09400, -123.0426, 42.09400&deg;N / 123.0426&deg;W
Mount Baldwin, 37.53200, -118.851, 37.53200&deg;N / 118.851&deg;W
Baldy Hill (Mount Baldy), 47.18334, -121.95038, 47.18334&deg;N / 121.95038&deg;W
Baldy Mountain, 40.16687, -107.53234, 40.16687&deg;N / 107.53234&deg;W
Baldy Point (Quartz Mtn), 34.89920, -99.3312, 34.89920&deg;N / 99.3312&deg;W
Baldpate Mountain-More to come, 44.60929, -70.89232, 44.60929&deg;N / 70.89232&deg;W
Bald Mountain-East Peak, 47.99840, -121.6553, 47.99840&deg;N / 121.6553&deg;W
Bald Mountain and Artist Bluff (Franconia Notch), 44.18300, -71.7038, 44.18300&deg;N / 71.7038&deg;W
Bald Mountain - Lander County (NV), 40.05270, -116.7036, 40.05270&deg;N / 116.7036&deg;W
Baldy Mountain (NM), 36.62960, -105.2125, 36.62960&deg;N / 105.2125&deg;W
Bald Mountain - Oquossoc, 44.94330, -70.7758, 44.94330&deg;N / 70.7758&deg;W
Bald Mountain – Pine Nut Mountains NV, 38.80865, -119.52284, 38.80865&deg;N / 119.52284&deg;W
Mount Baldy, 33.90580, -109.5625, 33.90580&deg;N / 109.5625&deg;W
Bald Mountain Boulder County Open Space, Colorado, 40.04677, -105.34399, 40.04677&deg;N / 105.34399&deg;W
Mount Baldy, 39.27838, -120.0001, 39.27838&deg;N / 120.0001&deg;W
Snow Canyon Rock Climbing, 37.19330, -113.6425, 37.19330&deg;N / 113.6425&deg;W
Baldy Peak NV, 39.96420, -114.396, 39.96420&deg;N / 114.396&deg;W
Bald Peak, 44.81910, -109.3224, 44.81910&deg;N / 109.3224&deg;W
Bald Peak, 44.15986, -73.66531, 44.15986&deg;N / 73.66531&deg;W
Balerdi, 43.03186, -2.03158, 43.03186&deg;N / 2.03158&deg;W
Bald Mountain (NV) Lyon County, 38.53460, -119.1144, 38.53460&deg;N / 119.1144&deg;W
Bald Mountain, 48.10591, -121.60243, 48.10591&deg;N / 121.60243&deg;W
Mount Balfour, 51.56460, -116.466, 51.56460&deg;N / 116.466&deg;W
Baldy, 47.89513, -123.18935, 47.89513&deg;N / 123.18935&deg;W
Baldy Peak, 38.11070, -107.68117, 38.11070&deg;N / 107.68117&deg;W
Mount Baldy (Elk Range), 38.99400, -107.046, 38.99400&deg;N / 107.046&deg;W
Baldy, 46.79912, -120.42774, 46.79912&deg;N / 120.42774&deg;W
Baldy Mountain, 44.33740, -118.7723, 44.33740&deg;N / 118.7723&deg;W
Baldy Mountain, 45.76610, -110.9439, 45.76610&deg;N / 110.9439&deg;W
Bald Mountain, 40.39895, -112.26431, 40.39895&deg;N / 112.26431&deg;W
Baldy Mountain, 38.44500, -105.3103, 38.44500&deg;N / 105.3103&deg;W
Baldy Peak, 38.40180, -112.4332, 38.40180&deg;N / 112.4332&deg;W
Mount Baldy, 51.01030, -115.05844, 51.01030&deg;N / 115.05844&deg;W
Balfrin, 46.13430, 7.88130, 46.13430&deg;N / 7.88130&deg;E
North Baldface & South Baldface, 44.23007, -71.08206, 44.23007&deg;N / 71.08206&deg;W
Mount Baldy, 46.85446, -121.25865, 46.85446&deg;N / 121.25865&deg;W
Ball Mountain, 43.11909, -72.77255, 43.11909&deg;N / 72.77255&deg;W
Baptiste Lookout (Point 6698), 48.12524, -113.65893, 48.12524&deg;N / 113.65893&deg;W
Mount Barcroft, 37.58220, -118.2482, 37.58220&deg;N / 118.2482&deg;W
Bard Peak, 35.58980, -114.8271, 35.58980&deg;N / 114.8271&deg;W
Banana Cracks Rock, 34.02515, -116.1769, 34.02515&deg;N / 116.1769&deg;W
Bard Peak, 39.72030, -105.8033, 39.72030&deg;N / 105.8033&deg;W
Bankrupt Rock, 34.03484, -116.13986, 34.03484&deg;N / 116.13986&deg;W
Bare Mountain, 34.39800, -117.9909, 34.39800&deg;N / 117.9909&deg;W
Bandit Peak, 39.53970, -105.6043, 39.53970&deg;N / 105.6043&deg;W
Barbeau Peak, 81.52000, -75.02, 81.52000&deg;N / 75.02&deg;W
Bare Mountain (Alpine Lakes), 47.64900, -121.50732, 47.64900&deg;N / 121.50732&deg;W
Bàntowafels - Eremitenfels, 39.71040, 21.61980, 39.71040&deg;N / 21.61980&deg;E
Bannock Mountain, 48.25581, -120.99211, 48.25581&deg;N / 120.99211&deg;W
Torre Barancio, 46.50995, 12.05087, 46.50995&deg;N / 12.05087&deg;E
Mount Bancroft, 39.83750, -105.7002, 39.83750&deg;N / 105.7002&deg;W
Bäralplkopf, 47.44649, 11.39062, 47.44649&deg;N / 11.39062&deg;E
Ballon d'Alsace, 47.81040, 6.84170, 47.81040&deg;N / 6.84170&deg;E
Mount Bangs, 36.79290, -113.8549, 36.79290&deg;N / 113.8549&deg;W
Banji Feng, 31.15000, 102.54000, 31.15000&deg;N / 102.54000&deg;E
Balsam Cone, 35.78900, -82.256, 35.78900&deg;N / 82.256&deg;W
Ball Mountain, 34.66380, -84.0731, 34.66380&deg;N / 84.0731&deg;W
Balmhorn, 46.42496, 7.69356, 46.42496&deg;N / 7.69356&deg;E
Balschtespitze, 47.32329, 10.41761, 47.32329&deg;N / 10.41761&deg;E
Bandarpoonch, 31.00326, 78.55324, 31.00326&deg;N / 78.55324&deg;E
Bare Mountain (incl. Bare Bottom), 45.91020, -122.0705, 45.91020&deg;N / 122.0705&deg;W
Bandalkoli, 36.06414, 51.51550, 36.06414&deg;N / 51.51550&deg;E
Piz Balzet, 46.33685, 9.66419, 46.33685&deg;N / 9.66419&deg;E
Balza della Penna (Monte Montiego), 43.59012, 12.52942, 43.59012&deg;N / 12.52942&deg;E
Bardamina, 42.66006, 0.44735, 42.66006&deg;N / 0.44735&deg;E
Balsam, 42.09093, -74.48802, 42.09093&deg;N / 74.48802&deg;W
Bandijerna, 43.10000, 19.00000, 43.10000&deg;N / 19.00000&deg;E
Seil dera Baquo, 42.69232, 0.49620, 42.69232&deg;N / 0.49620&deg;E
Baranec, 49.13590, 19.78500, 49.13590&deg;N / 19.78500&deg;E
Bandera Mountain, 47.41560, -121.5383, 47.41560&deg;N / 121.5383&deg;W
Bally Peak (Cache Creek Wilderness), 38.97739, -122.55882, 38.97739&deg;N / 122.55882&deg;W
Bano, 44.49950, 9.05010, 44.49950&deg;N / 9.05010&deg;E
Báránykő, 47.90955, 19.81840, 47.90955&deg;N / 19.81840&deg;E
Banshee Peak, 46.85103, -121.62088, 46.85103&deg;N / 121.62088&deg;W
Baracàn, 28.33483, -16.86255, 28.33483&deg;N / 16.86255&deg;W
Bare Mountain (NV), 36.84290, -116.6745, 36.84290&deg;N / 116.6745&deg;W
Bare Mountain (incl. Bare Bottom), 45.91020, -122.0705, 45.91020&deg;N / 122.0705&deg;W
Baranie Rohy, 49.12100, 20.11800, 49.12100&deg;N / 20.11800&deg;E
Barania Góra, 49.61077, 19.01081, 49.61077&deg;N / 19.01081&deg;E
Baníkov, 49.19292, 19.70535, 49.19292&deg;N / 19.70535&deg;E
Baou des Vespres, 43.53870, 5.64440, 43.53870&deg;N / 5.64440&deg;E
Banner Peak, 37.69700, -119.194, 37.69700&deg;N / 119.194&deg;W
Bärenkopf, 47.41525, 11.71117, 47.41525&deg;N / 11.71117&deg;E
Barlow Butte, 45.27588, -121.66865, 45.27588&deg;N / 121.66865&deg;W
Bare Peak, 45.84744, -114.40412, 45.84744&deg;N / 114.40412&deg;W
Mount Bartle Frere, -17.38333, 145.81670, 17.38333&deg;S / 145.81670&deg;E
Baruntse, 27.86943, 86.98013, 27.86943&deg;N / 86.98013&deg;E
Bartlett Mountain, 39.37700, -106.1592, 39.37700&deg;N / 106.1592&deg;W
Barrhorn, 46.15596, 7.73399, 46.15596&deg;N / 7.73399&deg;E
Barronette Peak, 44.97545, -110.0874, 44.97545&deg;N / 110.0874&deg;W
Barger Peak, 34.49224, -119.73454, 34.49224&deg;N / 119.73454&deg;W
Baron Peak, 44.12398, -115.04544, 44.12398&deg;N / 115.04544&deg;W
Barley Flats, 34.27610, -118.0722, 34.27610&deg;N / 118.0722&deg;W
Barlow Point, 48.03650, -121.44372, 48.03650&deg;N / 121.44372&deg;W
Barrel Butte, 42.66032, -103.24711, 42.66032&deg;N / 103.24711&deg;W
Barranco Juan de Vera, 28.07940, -17.1585, 28.07940&deg;N / 17.1585&deg;W
Basin Peak, 39.38216, -120.36417, 39.38216&deg;N / 120.36417&deg;W
Barker Ridge, 39.09925, -120.248, 39.09925&deg;N / 120.248&deg;W
Barrier Peak, 46.85878, -121.57763, 46.85878&deg;N / 121.57763&deg;W
Barneys Peak, 40.58397, -112.17592, 40.58397&deg;N / 112.17592&deg;W
“East Barnard”, 36.62610, -118.311, 36.62610&deg;N / 118.311&deg;W
Barker Peak, 39.07940, -120.23883, 39.07940&deg;N / 120.23883&deg;W
Barrow, 54.59198, -3.192, 54.59198&deg;N / 3.192&deg;W
Bass Creek Crags, 46.56860, -114.2101, 46.56860&deg;N / 114.2101&deg;W
Bass Peak, 46.57779, -114.31721, 46.57779&deg;N / 114.31721&deg;W
Barn Bluff, -41.72414, 145.92371, 41.72414&deg;S / 145.92371&deg;E
Bartlett Peak, 38.09000, -119.7749, 38.09000&deg;N / 119.7749&deg;W
“Barrett Peak”, 37.09050, -118.5072, 37.09050&deg;N / 118.5072&deg;W
Barnabe Mountain, 38.02619, -122.71634, 38.02619&deg;N / 122.71634&deg;W
Bassa Serra, 45.73102, 6.83002, 45.73102&deg;N / 6.83002&deg;E
Baring Mountain, 47.77932, -121.43594, 47.77932&deg;N / 121.43594&deg;W
Barre des Ecrins, 44.92350, 6.35710, 44.92350&deg;N / 6.35710&deg;E
Basham Sardi & Jir Asbi Ow, 36.26213, 51.38833, 36.26213&deg;N / 51.38833&deg;E
Bassa Serra, 45.73102, 6.83002, 45.73102&deg;N / 6.83002&deg;E
La Barragana, 42.93116, -5.82009, 42.93116&deg;N / 5.82009&deg;W
Basketball Wall 5.10-5.11d, 38.23149, -111.21624, 38.23149&deg;N / 111.21624&deg;W
Bärenluegspitze / Cima dell'Orso, 46.96063, 12.12523, 46.96063&deg;N / 12.12523&deg;E
Basin Mountain, 44.12110, -73.8867, 44.12110&deg;N / 73.8867&deg;W
Barre Noire, 44.92853, 6.36907, 44.92853&deg;N / 6.36907&deg;E
Barren Peak, 48.02583, -115.41278, 48.02583&deg;N / 115.41278&deg;W
Graie Alps, 45.46784, 7.10266, 45.46784&deg;N / 7.10266&deg;E
Mount Barnard, 36.62830, -118.322, 36.62830&deg;N / 118.322&deg;W
Barometer Mountain, 57.75449, -152.54942, 57.75449&deg;N / 152.54942&deg;W
Baskerville Rock, 34.03335, -116.20216, 34.03335&deg;N / 116.20216&deg;W
Bartlett Peak, 31.91960, -104.8819, 31.91960&deg;N / 104.8819&deg;W
Basin Mountain, 37.29700, -118.658, 37.29700&deg;N / 118.658&deg;W
Baron Spire, 44.09270, -115.039, 44.09270&deg;N / 115.039&deg;W
Punta Basei, 45.47524, 7.11481, 45.47524&deg;N / 7.11481&deg;E
Smith:  Basalt Areas, 44.36870, -121.1309, 44.36870&deg;N / 121.1309&deg;W
Barmouth Slabs, 52.72828, -4.04583, 52.72828&deg;N / 4.04583&deg;W
Basodino, 46.42290, 8.46080, 46.42290&deg;N / 8.46080&deg;E
Pico de Barrosa / Soum de Barroude, 42.71927, 0.16685, 42.71927&deg;N / 0.16685&deg;E
Batchawana Mountain, 47.06528, -84.41083, 47.06528&deg;N / 84.41083&deg;W
Battle Mountain, 43.27930, -110.5254, 43.27930&deg;N / 110.5254&deg;W
Bath Rock 5.9-5.12c, 42.07558, -113.72214, 42.07558&deg;N / 113.72214&deg;W
Bazarak, 35.91247, 51.35819, 35.91247&deg;N / 51.35819&deg;E
Bear Claw Spire / Treasure Peak, 37.32923, -118.75734, 37.32923&deg;N / 118.75734&deg;W
Bauzinho, -22.69299, -45.7261, 22.69299&deg;S / 45.7261&deg;W
Baume-Les-Dames, 47.33818, 6.35199, 47.33818&deg;N / 6.35199&deg;E
Bastion Peak, 43.20636, -109.66497, 43.20636&deg;N / 109.66497&deg;W
Bazardüzü, 41.22080, 47.85827, 41.22080&deg;N / 47.85827&deg;E
Batizowsky Stit, 49.09500, 20.07500, 49.09500&deg;N / 20.07500&deg;E
Mount Battie, 44.22300, -69.069, 44.22300&deg;N / 69.069&deg;W
Bat, 44.05400, 16.48750, 44.05400&deg;N / 16.48750&deg;E
The Bat Caves (B'ham Crags), 48.73446, -122.44263, 48.73446&deg;N / 122.44263&deg;W
Bassett Peak, 32.50600, -110.279, 32.50600&deg;N / 110.279&deg;W
Bean Peak, 47.42053, -120.86153, 47.42053&deg;N / 120.86153&deg;W
Baukogel, 47.24288, 12.94683, 47.24288&deg;N / 12.94683&deg;E
Bavariafels, 49.20501, 7.87438, 49.20501&deg;N / 7.87438&deg;E
Battleship Mountain, 33.50010, -111.39915, 33.50010&deg;N / 111.39915&deg;W
Battle Mountain, 40.27813, -105.59876, 40.27813&deg;N / 105.59876&deg;W
Baxter Mtn., 44.21666, -73.76512, 44.21666&deg;N / 73.76512&deg;W
Bead Mountain, 41.73750, -103.60931, 41.73750&deg;N / 103.60931&deg;W
Baylor Peak, 32.39300, -106.577, 32.39300&deg;N / 106.577&deg;W
Battle Mountain, 43.44289, -103.45327, 43.44289&deg;N / 103.45327&deg;W
Bavan, 32.84000, -113.91, 32.84000&deg;N / 113.91&deg;W
Max's Mountain (Baumann Bump), 60.94894, -149.08499, 60.94894&deg;N / 149.08499&deg;W
Bear Butte, 44.47582, -103.42685, 44.47582&deg;N / 103.42685&deg;W
Bavski Grintavec, 46.36887, 13.67120, 46.36887&deg;N / 13.67120&deg;E
Bear Mountain, 34.91860, -111.884, 34.91860&deg;N / 111.884&deg;W
Bataan 5.10a-5.13c, 51.08611, -115.27028, 51.08611&deg;N / 115.27028&deg;W
Bat Cave Peak (UN2070), 34.70856, -98.71705, 34.70856&deg;N / 98.71705&deg;W
Bazarak, 35.91576, 51.35722, 35.91576&deg;N / 51.35722&deg;E
Mount Beachie, 44.81091, -122.15473, 44.81091&deg;N / 122.15473&deg;W
Bear Den Mountain, 38.06651, -78.79884, 38.06651&deg;N / 78.79884&deg;W
Battle Ax, 44.82620, -122.138, 44.82620&deg;N / 122.138&deg;W
Beacon Rock, 45.62780, -122.0194, 45.62780&deg;N / 122.0194&deg;W
Battleship Rock, 35.82901, -106.64347, 35.82901&deg;N / 106.64347&deg;W
Bat Cave Mountain, 34.70789, -98.7113, 34.70789&deg;N / 98.7113&deg;W
Bear Creek Mountain, 46.52771, -121.34492, 46.52771&deg;N / 121.34492&deg;W
Bazm Chal, 35.81041, 52.05548, 35.81041&deg;N / 52.05548&deg;E
Beacon Hill, 47.69489, -117.33494, 47.69489&deg;N / 117.33494&deg;W
Bear Den Mountain, 38.06651, -78.79884, 38.06651&deg;N / 78.79884&deg;W
Bauerman Ridge, 48.97716, -120.06673, 48.97716&deg;N / 120.06673&deg;W
Batura I, 36.51029, 74.52276, 36.51029&deg;N / 74.52276&deg;E
Mount Baxter, 36.86180, -118.3641, 36.86180&deg;N / 118.3641&deg;W
Beam Rocks, 40.13100, -79.159, 40.13100&deg;N / 79.159&deg;W
Shenandoah National Park, 38.55500, -78.395, 38.55500&deg;N / 78.395&deg;W
Bear Creek Spire, 37.36810, -118.767, 37.36810&deg;N / 118.767&deg;W
Bear Peak, 43.67560, -114.5886, 43.67560&deg;N / 114.5886&deg;W
Beartown Mountain, 36.11880, -82.1369, 36.11880&deg;N / 82.1369&deg;W
Bearhat Mountain, 48.66696, -113.76386, 48.66696&deg;N / 113.76386&deg;W
Bear Ridge Peak, 38.75690, -111.95141, 38.75690&deg;N / 111.95141&deg;W
Bear Mountain, 47.87217, -121.35725, 47.87217&deg;N / 121.35725&deg;W
Beartown Mountain, 36.92730, -81.8948, 36.92730&deg;N / 81.8948&deg;W
Bear Top Mountain, 40.91170, -109.5938, 40.91170&deg;N / 109.5938&deg;W
Bearhead Mountain, 47.02373, -121.81604, 47.02373&deg;N / 121.81604&deg;W
Bears Ears (West), 37.63215, -109.87599, 37.63215&deg;N / 109.87599&deg;W
Bearhead Mountain, 48.42417, -113.35583, 48.42417&deg;N / 113.35583&deg;W
Bearpen Mountain, 42.26511, -74.47383, 42.26511&deg;N / 74.47383&deg;W
Bears Point, 39.14400, -107.2755, 39.14400&deg;N / 107.2755&deg;W
Beaver Mountain, 40.36850, -105.64502, 40.36850&deg;N / 105.64502&deg;W
Bear Mountain, 41.31270, -74.0067, 41.31270&deg;N / 74.0067&deg;W
Bearfort Mountain, 41.18654, -74.34217, 41.18654&deg;N / 74.34217&deg;W
Bear Mountain, 43.86980, -103.7439, 43.86980&deg;N / 103.7439&deg;W
Bear Paw Butte - Alaska, 65.04270, -146.11365, 65.04270&deg;N / 146.11365&deg;W
Bear Mountain, 42.04470, -73.4553, 42.04470&deg;N / 73.4553&deg;W
Bear Mountain, 44.19593, -74.812, 44.19593&deg;N / 74.812&deg;W
Bear Mountain, 40.61300, -76.613, 40.61300&deg;N / 76.613&deg;W
Bear Mountain, 41.79600, -123.672, 41.79600&deg;N / 123.672&deg;W
Bear Mtn & Keystone Mtn, 39.57221, -105.90362, 39.57221&deg;N / 105.90362&deg;W
Bear Rocks, 39.07300, -79.298, 39.07300&deg;N / 79.298&deg;W
Bear Peak, 39.96100, -105.295, 39.96100&deg;N / 105.295&deg;W
Bear Pete Mountain, 45.27670, -115.9791, 45.27670&deg;N / 115.9791&deg;W
Bearwallow Mountain, 35.46080, -82.3569, 35.46080&deg;N / 82.3569&deg;W
Beautiful Mountain, 36.47140, -109.0003, 36.47140&deg;N / 109.0003&deg;W
Bec Mollère or Pic Mulère, 45.59193, 7.57965, 45.59193&deg;N / 7.57965&deg;E
Beatty Mountain, 36.90661, -116.73805, 36.90661&deg;N / 116.73805&deg;W
Bear Mountain, 37.79448, -107.73291, 37.79448&deg;N / 107.73291&deg;W
Bears Ears, 40.77750, -107.2495, 40.77750&deg;N / 107.2495&deg;W
Beaver Peak (NV), 41.07590, -116.2543, 41.07590&deg;N / 116.2543&deg;W
Beaver Mountain, 35.66927, -94.81212, 35.66927&deg;N / 94.81212&deg;W
Bearhead Mountain-East Peak, 47.01448, -121.80023, 47.01448&deg;N / 121.80023&deg;W
Bec Costazza, 45.59326, 7.50504, 45.59326&deg;N / 7.50504&deg;E
Beattie Peak, 37.79014, -107.82477, 37.79014&deg;N / 107.82477&deg;W
Bears Tooth, 45.06244, -109.56446, 45.06244&deg;N / 109.56446&deg;W
Bearscout Peak (Mount Baldy), 47.34902, -121.4994, 47.34902&deg;N / 121.4994&deg;W
Bec Noir de l'Aroletta, 45.89276, 7.38234, 45.89276&deg;N / 7.38234&deg;E
Costiera dell'Aroletta, 45.88560, 7.38736, 45.88560&deg;N / 7.38736&deg;E
Beartooth Butte, 44.95432, -109.61004, 44.95432&deg;N / 109.61004&deg;W
Bearfence Mountain, 38.44700, -78.465, 38.44700&deg;N / 78.465&deg;W
Pennine Alps, 46.19500, 7.91016, 46.19500&deg;N / 7.91016&deg;E
Beaver Hill, 47.74600, -120.6489, 47.74600&deg;N / 120.6489&deg;W
Bears Ears (East), 37.62697, -109.85607, 37.62697&deg;N / 109.85607&deg;W
Bec Noir de l'Aroletta, 45.89276, 7.38234, 45.89276&deg;N / 7.38234&deg;E
Beaver Peak, 48.09845, -121.50823, 48.09845&deg;N / 121.50823&deg;W
Beatys Butte (OR), 42.38600, -119.3307, 42.38600&deg;N / 119.3307&deg;W
Beck Hill, 37.16141, -113.61959, 37.16141&deg;N / 113.61959&deg;W
Becca di Gay, 45.51603, 7.32007, 45.51603&deg;N / 7.32007&deg;E
Becca di Moncorvè, 45.51350, 7.26590, 45.51350&deg;N / 7.26590&deg;E
Becca di Chardoney, 45.90841, 7.40839, 45.90841&deg;N / 7.40839&deg;E
Becca di Prè d'Amont, 45.59610, 7.10258, 45.59610&deg;N / 7.10258&deg;E
Becca France, 45.74842, 7.21896, 45.74842&deg;N / 7.21896&deg;E
Becca d'Aver, 45.80070, 7.53560, 45.80070&deg;N / 7.53560&deg;E
Beckwourth Peak, 39.76890, -120.43676, 39.76890&deg;N / 120.43676&deg;W
Becca di Luseney, 45.87029, 7.49250, 45.87029&deg;N / 7.49250&deg;E
Bedford Peak, 33.76690, -117.5779, 33.76690&deg;N / 117.5779&deg;W
Bedford Peak, 33.76690, -117.5779, 33.76690&deg;N / 117.5779&deg;W
Beckwourth Pass South Summits, 39.75951, -120.11526, 39.75951&deg;N / 120.11526&deg;W
Bedal Peak, 48.06880, -121.35403, 48.06880&deg;N / 121.35403&deg;W
Becca de Blavy, 45.79634, 7.35490, 45.79634&deg;N / 7.35490&deg;E
Becca di Monciair, 45.48481, 7.23570, 45.48481&deg;N / 7.23570&deg;E
Becca Conge, 45.81088, 7.41142, 45.81088&deg;N / 7.41142&deg;E
Becca di Seneva or Becca du Cordagnë, 45.68975, 7.39534, 45.68975&deg;N / 7.39534&deg;E
Becca di Montandayné, 45.53290, 7.26956, 45.53290&deg;N / 7.26956&deg;E
Becca di Nona, 45.68890, 7.36680, 45.68890&deg;N / 7.36680&deg;E
Becca di Vlou (Vluhuare), 45.69120, 7.79185, 45.69120&deg;N / 7.79185&deg;E
Becca di Salè, 45.68850, 7.42023, 45.68850&deg;N / 7.42023&deg;E
Becca Pouignenta, 45.71600, 7.01100, 45.71600&deg;N / 7.01100&deg;E
Becca di Suessa or Pointe de Mine, 45.54552, 6.99636, 45.54552&deg;N / 6.99636&deg;E
Becca d'Aran, 45.87737, 7.66325, 45.87737&deg;N / 7.66325&deg;E
Becs Raty, 45.62240, 7.57627, 45.62240&deg;N / 7.57627&deg;E
Becca di Tzaboc or Punta di Luetta, 45.61854, 7.10335, 45.61854&deg;N / 7.10335&deg;E
Becca di Tei or Becca di Tey, 45.58671, 7.09640, 45.58671&deg;N / 7.09640&deg;E
Becca Rayette (Bec d'Epicoun), 45.89740, 7.38190, 45.89740&deg;N / 7.38190&deg;E
Becco Meridionale della Tribolazione, 45.50040, 7.33390, 45.50040&deg;N / 7.33390&deg;E
Becca Fontaney, 45.83421, 7.47833, 45.83421&deg;N / 7.47833&deg;E
Becco di Valsoera, 45.50683, 7.37921, 45.50683&deg;N / 7.37921&deg;E
Becca di Verconey, 45.63613, 7.09854, 45.63613&deg;N / 7.09854&deg;E
Becca Bianca del Paramont, 45.66710, 7.02404, 45.66710&deg;N / 7.02404&deg;E
Becca di Tos, 45.63061, 7.10764, 45.63061&deg;N / 7.10764&deg;E
Beckwourth Pass North Summits, 39.80784, -120.11397, 39.80784&deg;N / 120.11397&deg;W
Becca del Merlo or Becca di Chamin, 45.65113, 7.11914, 45.65113&deg;N / 7.11914&deg;E
Becky Peak NV, 39.97100, -114.6025, 39.97100&deg;N / 114.6025&deg;W
Becco di Filadonna, 45.96398, 11.19292, 45.96398&deg;N / 11.19292&deg;E
Becchi di Fana, 45.79990, 7.40403, 45.79990&deg;N / 7.40403&deg;E
Becca d'Avuille, 45.79140, 7.44280, 45.79140&deg;N / 7.44280&deg;E
Becca du Lac, 45.62994, 6.99567, 45.62994&deg;N / 6.99567&deg;E
Becca di Roisan or Becca di Pechenville, 45.79625, 7.36153, 45.79625&deg;N / 7.36153&deg;E
Santa Ana Mountains, 33.68664, -117.49603, 33.68664&deg;N / 117.49603&deg;W
Bec Taillà, 45.68540, 7.05007, 45.68540&deg;N / 7.05007&deg;E
Becca Torché, 45.69053, 7.78590, 45.69053&deg;N / 7.78590&deg;E
Beckler Peak, 47.73562, -121.28165, 47.73562&deg;N / 121.28165&deg;W
Becca di Viou, 45.79720, 7.36251, 45.79720&deg;N / 7.36251&deg;E
Becca Tsambeina, 45.53743, 7.13380, 45.53743&deg;N / 7.13380&deg;E
Becco della Pazienza, 45.52126, 7.33719, 45.52126&deg;N / 7.33719&deg;E
Bedson Ridge Rocky Mountains, Alberta, 53.21426, -118.02406, 53.21426&deg;N / 118.02406&deg;W
Belfry Mountain, 44.09773, -73.5478, 44.09773&deg;N / 73.5478&deg;W
Beerenberg, 71.08330, -8.183, 71.08330&deg;N / 8.183&deg;W
Beinn a' Chuallaich, 56.73616, -4.15146, 56.73616&deg;N / 4.15146&deg;W
Mount Belknap, 38.41940, -112.4119, 38.41940&deg;N / 112.4119&deg;W
Beerwah, -26.9, 152.88522, 26.9&deg;S / 152.88522&deg;E
Bellevue (Pointe de), 46.25610, 6.89290, 46.25610&deg;N / 6.89290&deg;E
Belvidere Mountain, 44.77330, -72.5518, 44.77330&deg;N / 72.5518&deg;W
Bee Sting Hill, 47.77713, -120.64439, 47.77713&deg;N / 120.64439&deg;W
Bell Rock, 34.80010, -111.7638, 34.80010&deg;N / 111.7638&deg;W
Sommet de Bellecôte, 45.49215, 6.78234, 45.49215&deg;N / 6.78234&deg;E
Beehive Mountain, 47.33139, -120.39174, 47.33139&deg;N / 120.39174&deg;W
Aiguille du Belvedere, 45.98773, 6.87388, 45.98773&deg;N / 6.87388&deg;E
Bela pec/Bila pec, 46.37773, 13.45963, 46.37773&deg;N / 13.45963&deg;E
Bell Mountain, 44.23640, -113.1941, 44.23640&deg;N / 113.1941&deg;W
Ben Klibreck/Meall nan Con, 58.23293, -4.4165, 58.23293&deg;N / 4.4165&deg;W
Belukha - Uch-Sumer, 49.80875, 86.58909, 49.80875&deg;N / 86.58909&deg;E
Beirdneau Peak, 41.79230, -111.69353, 41.79230&deg;N / 111.69353&deg;W
Mount Begbie, 51.48333, -121.36667, 51.48333&deg;N / 121.36667&deg;W
Bellavista, 46.37372, 9.93221, 46.37372&deg;N / 9.93221&deg;E
Bell Mountain, 37.62620, -90.8661, 37.62620&deg;N / 90.8661&deg;W
Bella Tola, 46.20360, 7.64920, 46.20360&deg;N / 7.64920&deg;E
Ben A'an, 56.23424, -4.40775, 56.23424&deg;N / 4.40775&deg;W
Ben Cruachan, 56.42000, -5.13, 56.42000&deg;N / 5.13&deg;W
Belknap Crater, 44.28492, -121.84229, 44.28492&deg;N / 121.84229&deg;W
Bells Cleaver, 40.54287, -111.74255, 40.54287&deg;N / 111.74255&deg;W
Begunjski vrh, 46.39030, 13.85500, 46.39030&deg;N / 13.85500&deg;E
Beehive Peak, 45.35410, -111.4051, 45.35410&deg;N / 111.4051&deg;W
Beinn Dorain, 56.50287, -4.72189, 56.50287&deg;N / 4.72189&deg;W
Beer Routes WI 3-6, 51.37472, -116.50361, 51.37472&deg;N / 116.50361&deg;W
Beinn Chabhair, 56.32500, -4.639, 56.32500&deg;N / 4.639&deg;W
Belknap Mountain, 43.51780, -71.3694, 43.51780&deg;N / 71.3694&deg;W
Bel Oiseau, 46.08180, 6.93790, 46.08180&deg;N / 6.93790&deg;E
Beinn a'Ghlo, 56.82793, -3.73398, 56.82793&deg;N / 3.73398&deg;W
Belvedere, 46.47245, 11.86250, 46.47245&deg;N / 11.86250&deg;E
Belianska Kopa / Bélai-domb, 49.22816, 20.22390, 49.22816&deg;N / 20.22390&deg;E
Belleview Mountain, 39.04440, -106.999, 39.04440&deg;N / 106.999&deg;W
Belchen, 47.83070, 7.80580, 47.83070&deg;N / 7.80580&deg;E
Beinn Laoigh/Ben Lui, 56.39771, -4.81158, 56.39771&deg;N / 4.81158&deg;W
Beinn Ime, 56.23853, -4.81716, 56.23853&deg;N / 4.81716&deg;W
Ben Klibreck/Meall nan Con, 58.23293, -4.4165, 58.23293&deg;N / 4.4165&deg;W
Beehive Peak, 38.93566, -112.07816, 38.93566&deg;N / 112.07816&deg;W
Beinn a'Bhuird, 57.03326, -3.46859, 57.03326&deg;N / 3.46859&deg;W
Mount Belford, 38.96060, -106.3606, 38.96060&deg;N / 106.3606&deg;W
Cerro Bella Vista, -41.1319, -71.49593, 41.1319&deg;S / 71.49593&deg;W
Scotland, 56.83695, -4.15283, 56.83695&deg;N / 4.15283&deg;W
Mount Bell, 51.28330, -116.1014, 51.28330&deg;N / 116.1014&deg;W
Begunjscica, 46.42164, 14.22989, 46.42164&deg;N / 14.22989&deg;E
Beinn Narnain, 56.22136, -4.79012, 56.22136&deg;N / 4.79012&deg;W
Benevent (Pointe de), 46.34790, 6.77720, 46.34790&deg;N / 6.77720&deg;E
Berrenda Mountain North, 32.76766, -107.60593, 32.76766&deg;N / 107.60593&deg;W
Bennett Mountain, 38.41160, -122.6239, 38.41160&deg;N / 122.6239&deg;W
Bergen Peak, 39.66620, -105.3952, 39.66620&deg;N / 105.3952&deg;W
Ben Lomand Mountain, 39.12200, -104.9036, 39.12200&deg;N / 104.9036&deg;W
Bernardo Mountain, 33.06393, -117.08809, 33.06393&deg;N / 117.08809&deg;W
Benicadell, 38.83248, -0.4087, 38.83248&deg;N / 0.4087&deg;W
Bergseeschijen, 46.66464, 8.48436, 46.66464&deg;N / 8.48436&deg;E
Ben Macdui, 57.07210, -3.6625, 57.07210&deg;N / 3.6625&deg;W
Benedict Peak (Peak 9930), 43.97000, -115.0504, 43.97000&deg;N / 115.0504&deg;W
Piz Bernina, 46.38130, 9.90670, 46.38130&deg;N / 9.90670&deg;E
Bessie Butte, 43.94880, -121.26919, 43.94880&deg;N / 121.26919&deg;W
Benchmark Mountain / West Cady Ridge, 47.92448, -121.20289, 47.92448&deg;N / 121.20289&deg;W
Benn Knob, 35.56500, -81.661, 35.56500&deg;N / 81.661&deg;W
Bernadeinwand, 47.43070, 11.06023, 47.43070&deg;N / 11.06023&deg;E
Berry Peak, 46.94714, -121.8941, 46.94714&deg;N / 121.8941&deg;W
Benign Peak, 61.27023, -149.04053, 61.27023&deg;N / 149.04053&deg;W
Bertha Peak, 34.28310, -116.8992, 34.28310&deg;N / 116.8992&deg;W
Bernard Peak (Ringing Rock), 42.82510, -109.261, 42.82510&deg;N / 109.261&deg;W
Benson Plateau, 45.62200, -121.8427, 45.62200&deg;N / 121.8427&deg;W
Berry Butte, 36.02058, -112.00237, 36.02058&deg;N / 112.00237&deg;W
Bérangère (Aiguille de la), 45.80340, 6.77860, 45.80340&deg;N / 6.77860&deg;E
Bennett Mountain, 39.38610, -105.1245, 39.38610&deg;N / 105.1245&deg;W
Bennett Peak, 37.48300, -106.433, 37.48300&deg;N / 106.433&deg;W
Locals Only Rock, 37.73219, -118.56876, 37.73219&deg;N / 118.56876&deg;W
Bettlerkarspitze, 47.43073, 11.61766, 47.43073&deg;N / 11.61766&deg;E
The Ben Lomond Plateau and Legges Tor, -41.53257, 147.65828, 41.53257&deg;S / 147.65828&deg;E
Bent Tree Area (5.7-5.9+), 38.60328, -78.3681, 38.60328&deg;N / 78.3681&deg;W
Bettys Jugs (Bettys Peak), 48.38566, -121.40228, 48.38566&deg;N / 121.40228&deg;W
Ben Lomond, 41.36319, -111.96084, 41.36319&deg;N / 111.96084&deg;W
Ben Lomond, -45.007, 168.61501, 45.007&deg;S / 168.61501&deg;E
Bessemer Mountain, 47.56022, -121.60848, 47.56022&deg;N / 121.60848&deg;W
Ben Vorlich (Loch Earn), 56.34357, -4.21849, 56.34357&deg;N / 4.21849&deg;W
Berry-Norton, 44.32637, -118.87262, 44.32637&deg;N / 118.87262&deg;W
Bertha Peak, 49.03890, -113.9444, 49.03890&deg;N / 113.9444&deg;W
Bessanese, 45.30252, 7.12035, 45.30252&deg;N / 7.12035&deg;E
Berrenda Mountain South, 32.76211, -107.60448, 32.76211&deg;N / 107.60448&deg;W
Bettelwurf Großer, 47.34487, 11.51505, 47.34487&deg;N / 11.51505&deg;E
Berry Mountain, 40.52730, -76.9316, 40.52730&deg;N / 76.9316&deg;W
Bettys Jugs (Bettys Peak), 48.38566, -121.40228, 48.38566&deg;N / 121.40228&deg;W
Besiberris, 42.59513, 0.82732, 42.59513&deg;N / 0.82732&deg;E
Bent Peak, 37.86057, -107.3806, 37.86057&deg;N / 107.3806&deg;W
Ben Lomond, 56.14976, -4.64001, 56.14976&deg;N / 4.64001&deg;W
Berryessa Peak, 38.66379, -122.19044, 38.66379&deg;N / 122.19044&deg;W
Ben Vane, 56.26509, -4.78867, 56.26509&deg;N / 4.78867&deg;W
Ben Nevis, 56.79712, -5.00552, 56.79712&deg;N / 5.00552&deg;W
Big Bickford, 44.19664, -71.65382, 44.19664&deg;N / 71.65382&deg;W
Bhagirathi - II, 30.88219, 79.13349, 30.88219&deg;N / 79.13349&deg;E
Bettys Rock, 38.56720, -78.3817, 38.56720&deg;N / 78.3817&deg;W
Mount McPherson, 37.22350, -122.0927, 37.22350&deg;N / 122.0927&deg;W
Big Black Dome, 43.82222, -113.98019, 43.82222&deg;N / 113.98019&deg;W
Big Baldy, 36.67200, -118.8815, 36.67200&deg;N / 118.8815&deg;W
Big Bald, 35.98970, -82.49, 35.98970&deg;N / 82.49&deg;W
Big A Mountain, 37.05250, -82.0358, 37.05250&deg;N / 82.0358&deg;W
Bico do Papagaio, -22.9534, -43.309, 22.9534&deg;S / 43.309&deg;W
Big Cataloochee Mountain, 35.67200, -83.176, 35.67200&deg;N / 83.176&deg;W
Big Deer Peak, 48.37986, -121.91604, 48.37986&deg;N / 121.91604&deg;W
Big Block 5.7 - 5.12a, 35.03170, -106.362, 35.03170&deg;N / 106.362&deg;W
Big Cedar Mountain, 34.68900, -83.9922, 34.68900&deg;N / 83.9922&deg;W
Big Frog Mountain, 35.00043, -84.52941, 35.00043&deg;N / 84.52941&deg;W
Big Fog Mountain, 46.12890, -115.1805, 46.12890&deg;N / 115.1805&deg;W
Big Den Mountain, 49.88496, -125.81264, 49.88496&deg;N / 125.81264&deg;W
Bietschhorn, 46.39138, 7.85055, 46.39138&deg;N / 7.85055&deg;E
Monte Biaina, 45.95634, 10.87186, 45.95634&deg;N / 10.87186&deg;E
Mount Beulah, 40.79380, -110.6821, 40.79380&deg;N / 110.6821&deg;W
Big Baldy Mountain, 46.96841, -110.60615, 46.96841&deg;N / 110.60615&deg;W
Big Butt Mountain, 35.78650, -82.34624, 35.78650&deg;N / 82.34624&deg;W
Big Eightmile Peak, 44.54890, -113.57, 44.54890&deg;N / 113.57&deg;W
Big Cinder Butte, 43.41696, -113.53898, 43.41696&deg;N / 113.53898&deg;W
Big Bear Mountain, 48.14930, -121.6812, 48.14930&deg;N / 121.6812&deg;W
Big Elk Mountain (ID), 43.23580, -111.2749, 43.23580&deg;N / 111.2749&deg;W
Big Basin Peak, 43.73610, -114.099, 43.73610&deg;N / 114.099&deg;W
Big Four Mountain, 48.04200, -121.52, 48.04200&deg;N / 121.52&deg;W
Big Agnes Mountain, 40.83050, -106.6925, 40.83050&deg;N / 106.6925&deg;W
Bezimeni Vrh, 43.10000, 19.00000, 43.10000&deg;N / 19.00000&deg;E
Bezymianny, 55.97293, 160.59608, 55.97293&deg;N / 160.59608&deg;E
Big Creek Peak, 44.47177, -113.5432, 44.47177&deg;N / 113.5432&deg;W
Big Baldy (Timpanogos), 40.36603, -111.66573, 40.36603&deg;N / 111.66573&deg;W
Bifertenstock 3419m, 46.80422, 8.95759, 46.80422&deg;N / 8.95759&deg;E
Bezd mt., 35.18455, 60.34261, 35.18455&deg;N / 60.34261&deg;E
Big Bald Peak (NV), 39.96530, -115.5614, 39.96530&deg;N / 115.5614&deg;W
Bidean nam Bian, 56.64419, -5.03345, 56.64419&deg;N / 5.03345&deg;W
Mount Bierstadt, 39.58280, -105.6681, 39.58280&deg;N / 105.6681&deg;W
Big Baldy (ID), 44.78240, -115.219, 44.78240&deg;N / 115.219&deg;W
Big Craggies, 42.34040, -124.0585, 42.34040&deg;N / 124.0585&deg;W
Big Butte, 46.11531, -117.24937, 46.11531&deg;N / 117.24937&deg;W
Bickle Knob, 38.93400, -79.731, 38.93400&deg;N / 79.731&deg;W
Bezbog (Pirin), 41.74679, 23.53847, 41.74679&deg;N / 23.53847&deg;E
Big Gee, 48.44976, -121.81347, 48.44976&deg;N / 121.81347&deg;W
Big Gee, 48.44976, -121.81347, 48.44976&deg;N / 121.81347&deg;W
Big Bee Hive, 51.41291, -116.22849, 51.41291&deg;N / 116.22849&deg;W
Big Foot Hill, 48.77514, -122.27332, 48.77514&deg;N / 122.27332&deg;W
Big Bald Knob, 38.35490, -79.2988, 38.35490&deg;N / 79.2988&deg;W
Big Crow Mt., 44.26650, -73.7407, 44.26650&deg;N / 73.7407&deg;W
Big Chief Mountain, 47.74629, -121.06692, 47.74629&deg;N / 121.06692&deg;W
Big Sister, 44.16672, -113.1287, 44.16672&deg;N / 113.1287&deg;W
Big Lick Mountain, 40.59900, -76.582, 40.59900&deg;N / 76.582&deg;W
Big Interior Mountain, 49.46026, -125.57352, 49.46026&deg;N / 125.57352&deg;W
Big Horn, 46.49290, -121.422, 46.49290&deg;N / 121.422&deg;W
Big Mountain (MT), 48.51840, -114.3379, 48.51840&deg;N / 114.3379&deg;W
Big Sam, 38.22910, -119.6253, 38.22910&deg;N / 119.6253&deg;W
Big Slide Mountain, 44.18220, -73.8708, 44.18220&deg;N / 73.8708&deg;W
Big Green Mountain, 35.15900, -83.028, 35.15900&deg;N / 83.028&deg;W
Big Southern Butte, 43.39620, -113.022, 43.39620&deg;N / 113.022&deg;W
Big Lost Cove Cliffs, 36.02330, -81.8456, 36.02330&deg;N / 81.8456&deg;W
Big Schloss, 38.94070, -78.6658, 38.94070&deg;N / 78.6658&deg;W
Big Tom, 35.78000, -82.26, 35.78000&deg;N / 82.26&deg;W
Big Horn County Highpoint, 45.00100, -107.9114, 45.00100&deg;N / 107.9114&deg;W
Big Top 5.3-5.10d, 34.10284, -116.16933, 34.10284&deg;N / 116.16933&deg;W
Big Mountain, 38.60130, -78.6323, 38.60130&deg;N / 78.6323&deg;W
Big Jay, 44.91600, -72.541, 44.91600&deg;N / 72.541&deg;W
Big Pine Mountain, 34.69688, -119.65399, 34.69688&deg;N / 119.65399&deg;W
Mount Bigelow, 48.21600, -120.35, 48.21600&deg;N / 120.35&deg;W
Big Peak, 43.66873, -114.7287, 43.66873&deg;N / 114.7287&deg;W
Big Marvine Peak, 39.94949, -107.33969, 39.94949&deg;N / 107.33969&deg;W
Big Huckleberry Mountain, 45.84730, -121.7837, 45.84730&deg;N / 121.7837&deg;W
Bighorn Mating Grotto 5.10a-5.11c, 34.05100, -116.147, 34.05100&deg;N / 116.147&deg;W
Big House Mountain, 37.83200, -79.561, 37.83200&deg;N / 79.561&deg;W
Big Rock Candy Mountain, 39.13140, -105.3223, 39.13140&deg;N / 105.3223&deg;W
Morro do Tartarugão, -22.43485, -44.85598, 22.43485&deg;S / 44.85598&deg;W
Big Slide Mountain, 44.89200, -122.07131, 44.89200&deg;N / 122.07131&deg;W
Big Pryor Mountain, 45.16050, -108.4693, 45.16050&deg;N / 108.4693&deg;W
Big Kangaroo, 48.51920, -120.6166, 48.51920&deg;N / 120.6166&deg;W
Big Muffin, 47.28663, -121.4196, 47.28663&deg;N / 121.4196&deg;W
Big Mountain (UT), 40.84540, -111.6604, 40.84540&deg;N / 111.6604&deg;W
Big Snagtooth, 48.53405, -120.589, 48.53405&deg;N / 120.589&deg;W
Bigelow Mountain, 45.14750, -70.2888, 45.14750&deg;N / 70.2888&deg;W
Big Maria Peak, 33.86780, -114.6689, 33.86780&deg;N / 114.6689&deg;W
Big Lou Mountain (and Point 7760), 47.63535, -120.83974, 47.63535&deg;N / 120.83974&deg;W
Big Rock - Lake Perris, 33.83830, -117.171, 33.83830&deg;N / 117.171&deg;W
Big Sister, 51.01390, -115.35, 51.01390&deg;N / 115.35&deg;W
Big Rock Ridge, 38.05910, -122.604, 38.05910&deg;N / 122.604&deg;W
Big Yellow Mountain, 36.11200, -82.0612, 36.11200&deg;N / 82.0612&deg;W
Big Spencer Mountain, 45.77267, -69.44733, 45.77267&deg;N / 69.44733&deg;W
Big Knob aka Cedar Rock., 35.18010, -82.6342, 35.18010&deg;N / 82.6342&deg;W
Big Hatchet Peak, 31.63600, -108.398, 31.63600&deg;N / 108.398&deg;W
Big Jim Mountain, 47.65938, -120.8345, 47.65938&deg;N / 120.8345&deg;W
Bigelow Peak, 38.14900, -119.627, 38.14900&deg;N / 119.627&deg;W
Big Indian, 42.03504, -74.49664, 42.03504&deg;N / 74.49664&deg;W
Bighorn Mating Grotto 5.10a-5.11c, 34.05100, -116.147, 34.05100&deg;N / 116.147&deg;W
Big Snow Mountain, 47.53528, -121.3658, 47.53528&deg;N / 121.3658&deg;W
Big Moose Mountain, 45.48000, -69.71, 45.48000&deg;N / 69.71&deg;W
Joshua Tree National Park, 33.95400, -115.799, 33.95400&deg;N / 115.799&deg;W
Big Lookout Mountain, 44.60910, -117.2785, 44.60910&deg;N / 117.2785&deg;W
Big Horn Peak, 33.61015, -113.14922, 33.61015&deg;N / 113.14922&deg;W
Bilk Mountain, 45.94160, -115.04539, 45.94160&deg;N / 115.04539&deg;W
Bischof, 47.54018, 11.17614, 47.54018&deg;N / 11.17614&deg;E
Bilk Creek Mountain HP, 41.88660, -118.40916, 41.88660&deg;N / 118.40916&deg;W
Billiat (Mont), 46.28000, 6.58000, 46.28000&deg;N / 6.58000&deg;E
Bird Peak, 61.00204, -149.28819, 61.00204&deg;N / 149.28819&deg;W
Bill's Peak, 47.42762, -120.89149, 47.42762&deg;N / 120.89149&deg;W
Mt. Bisoke, -1.42499, 29.52507, 1.42499&deg;S / 29.52507&deg;E
Birch Knob, 37.23800, -82.458, 37.23800&deg;N / 82.458&deg;W
Bighorn Mountain, 34.26227, -116.60529, 34.26227&deg;N / 116.60529&deg;W
Birch Rock Hill, 40.04831, -79.31537, 40.04831&deg;N / 79.31537&deg;W
Bill Williams Mountain, 35.19940, -112.2042, 35.19940&deg;N / 112.2042&deg;W
Birch Mountain, 37.06240, -118.4182, 37.06240&deg;N / 118.4182&deg;W
Bighorn Peak, 34.23360, -117.5966, 34.23360&deg;N / 117.5966&deg;W
Bishop Peak, 35.30248, -120.69739, 35.30248&deg;N / 120.69739&deg;W
Bill Couch Mountain, 39.53680, -105.1596, 39.53680&deg;N / 105.1596&deg;W
Bighorn Peak  (Upper Bells Peak), 40.52270, -111.7434, 40.52270&deg;N / 111.7434&deg;W
Billboard Buttress, 34.09318, -116.1554, 34.09318&deg;N / 116.1554&deg;W
Ministry Wall, 37.38457, -118.67812, 37.38457&deg;N / 118.67812&deg;W
Birkenfeld Mountain, 45.71701, -122.0016, 45.71701&deg;N / 122.0016&deg;W
Bio Pfeiler, 46.32785, 9.67793, 46.32785&deg;N / 9.67793&deg;E
Punta di Bioula, 45.60320, 7.17290, 45.60320&deg;N / 7.17290&deg;E
Bison Mountain (GNP), 48.46510, -113.31003, 48.46510&deg;N / 113.31003&deg;W
Birkkarspitze, 47.41113, 11.43848, 47.41113&deg;N / 11.43848&deg;E
Birkenhead Peak, 50.51117, -122.62098, 50.51117&deg;N / 122.62098&deg;W
Billys Peak Lookout, 41.12146, -122.74638, 41.12146&deg;N / 122.74638&deg;W
Bighorn Mountain (RMNP), 40.42950, -105.6199, 40.42950&deg;N / 105.6199&deg;W
Bills Hill, 37.04568, -121.43958, 37.04568&deg;N / 121.43958&deg;W
Bighorn Mountain, 34.09056, -116.81871, 34.09056&deg;N / 116.81871&deg;W
Bird's Nest, 38.98780, -77.2475, 38.98780&deg;N / 77.2475&deg;W
Bismarck Peak, 46.76385, -121.27602, 46.76385&deg;N / 121.27602&deg;W
Bishops Cap, 48.72510, -113.71, 48.72510&deg;N / 113.71&deg;W
Billys Peak, 41.13254, -122.76917, 41.13254&deg;N / 122.76917&deg;W
Bird Mountain, 46.03900, -121.78, 46.03900&deg;N / 121.78&deg;W
Mount Birdwood, 50.78000, -115.35, 50.78000&deg;N / 115.35&deg;W
Bionnassay (Aiguille de), 45.83740, 6.83180, 45.83740&deg;N / 6.83180&deg;E
Bills Peak, 39.85600, -105.962, 39.85600&deg;N / 105.962&deg;W
Bisaurín, 42.79210, -0.644, 42.79210&deg;N / 0.644&deg;W
Bird Spring Range High Point & Bird Peak, 35.89265, -115.38981, 35.89265&deg;N / 115.38981&deg;W
Bighorn Peak, 44.25400, -107.107, 44.25400&deg;N / 107.107&deg;W
Birch Point (Point 6948), 48.13346, -113.92167, 48.13346&deg;N / 113.92167&deg;W
Bijele and Samarske stijene, 45.23300, 14.96700, 45.23300&deg;N / 14.96700&deg;E
Bison Mountain (GNP), 48.46510, -113.31003, 48.46510&deg;N / 113.31003&deg;W
Mount Binga, -19.3333, 32.78330, 19.3333&deg;S / 32.78330&deg;E
Bird Knob, 38.60329, -78.64334, 38.60329&deg;N / 78.64334&deg;W
Bishop Cap, 32.19030, -106.6036, 32.19030&deg;N / 106.6036&deg;W
Binalood, 36.42667, 58.84787, 36.42667&deg;N / 58.84787&deg;E
Bischof, 47.40534, 12.51162, 47.40534&deg;N / 12.51162&deg;E
Bishorn, 46.11777, 7.71472, 46.11777&deg;N / 7.71472&deg;E
Glacier National Park MT, 48.69700, -113.717, 48.69700&deg;N / 113.717&deg;W
Black Cap Mountain, 38.95514, -111.82079, 38.95514&deg;N / 111.82079&deg;W
Black Buttes, 39.39488, -120.55767, 39.39488&deg;N / 120.55767&deg;W
Black Butte (Oregon), 44.39960, -121.6345, 44.39960&deg;N / 121.6345&deg;W
Black Mountain, 45.47140, -110.4656, 45.47140&deg;N / 110.4656&deg;W
Black Lassic, 40.34024, -123.54122, 40.34024&deg;N / 123.54122&deg;W
Bitoraj, 45.29266, 14.78333, 45.29266&deg;N / 14.78333&deg;E
Black Mountain, 37.26698, -118.22533, 37.26698&deg;N / 118.22533&deg;W
Bjelolasica, 45.27300, 14.96200, 45.27300&deg;N / 14.96200&deg;E
Black Butte (Orland Buttes), 39.81355, -122.35259, 39.81355&deg;N / 122.35259&deg;W
Bjørnskardtinden, 69.55500, 19.36580, 69.55500&deg;N / 19.36580&deg;E
Black Mountain, 44.74270, -107.381, 44.74270&deg;N / 107.381&deg;W
Bispen, 62.46161, 7.65060, 62.46161&deg;N / 7.65060&deg;E
Black Butte (CA), 41.35914, -122.34966, 41.35914&deg;N / 122.34966&deg;W
Black Mesa (Plomosa Mts. AZ), 33.59890, -114.02185, 33.59890&deg;N / 114.02185&deg;W
Black Dome, 42.27010, -74.123, 42.27010&deg;N / 74.123&deg;W
Black Mountain, 42.89408, -72.64023, 42.89408&deg;N / 72.64023&deg;W
Bison Peak, 39.23860, -105.497, 39.23860&deg;N / 105.497&deg;W
Black Mountain, 37.31773, -122.14753, 37.31773&deg;N / 122.14753&deg;W
Black Butte, 38.68297, -120.02248, 38.68297&deg;N / 120.02248&deg;W
Black Crater, 44.26580, -121.7486, 44.26580&deg;N / 121.7486&deg;W
Black Mountain, 35.74167, -118.52278, 35.74167&deg;N / 118.52278&deg;W
Black Mountain, 37.31773, -122.14753, 37.31773&deg;N / 122.14753&deg;W
Black Face Mountain, 37.82360, -107.9211, 37.82360&deg;N / 107.9211&deg;W
Black Butte (SW Mojave), 34.55920, -117.7216, 34.55920&deg;N / 117.7216&deg;W
Black Mountain, 43.60700, -73.534, 43.60700&deg;N / 73.534&deg;W
Black Mountain, 35.93097, -115.04319, 35.93097&deg;N / 115.04319&deg;W
Black Mountain (NM), 36.42791, -105.02724, 36.42791&deg;N / 105.02724&deg;W
Black Feather Canyon 5.9-5.12c, 51.28778, -115.49861, 51.28778&deg;N / 115.49861&deg;W
Black Mountain, 36.00600, -114.852, 36.00600&deg;N / 114.852&deg;W
Black Mountain, 34.67490, -84.0061, 34.67490&deg;N / 84.0061&deg;W
Black Mesa (Kayenta Point), 36.65120, -110.2624, 36.65120&deg;N / 110.2624&deg;W
"Black Cat Peak", 38.03751, -119.29018, 38.03751&deg;N / 119.29018&deg;W
Black Butte (CA) Glenn cohp, 39.72690, -122.8714, 39.72690&deg;N / 122.8714&deg;W
Black Balsam Knob, 35.32800, -82.874, 35.32800&deg;N / 82.874&deg;W
Bjelasnica, 43.40000, 18.10000, 43.40000&deg;N / 18.10000&deg;E
Black Mountain #1, 33.82416, -116.75762, 33.82416&deg;N / 116.75762&deg;W
Santa Cruz Mountains, 37.08148, -122.02515, 37.08148&deg;N / 122.02515&deg;W
Black Giant, 37.10140, -118.647, 37.10140&deg;N / 118.647&deg;W
Black Lion Mountain, 45.62868, -112.98786, 45.62868&deg;N / 112.98786&deg;W
Black Butte (Chuckwalla Mountains), 33.56138, -115.34479, 33.56138&deg;N / 115.34479&deg;W
Black Crook Peak, 39.98430, -112.5406, 39.98430&deg;N / 112.5406&deg;W
SF Bay Area Peaks, 37.50000, -122, 37.50000&deg;N / 122&deg;W
Black Mountain, 40.78350, -107.3694, 40.78350&deg;N / 107.3694&deg;W
Black Mesa, 36.93190, -102.9977, 36.93190&deg;N / 102.9977&deg;W
Black Kaweah, 36.54500, -118.5156, 36.54500&deg;N / 118.5156&deg;W
Black Mesa (Sierra Ancha), 33.64700, -110.891, 33.64700&deg;N / 110.891&deg;W
Black Elk Peak / Harney Peak, 43.86610, -103.5311, 43.86610&deg;N / 103.5311&deg;W
Black Butte (MT), 44.90425, -111.85563, 44.90425&deg;N / 111.85563&deg;W
"Black Desert Dome", 36.75879, -116.90895, 36.75879&deg;N / 116.90895&deg;W
Black Hawk Mountain, 38.20580, -119.7091, 38.20580&deg;N / 119.7091&deg;W
Blackcap Mountain, 48.80800, -120.5429, 48.80800&deg;N / 120.5429&deg;W
Black Mountain (Marin County), 38.08070, -122.76556, 38.08070&deg;N / 122.76556&deg;W
Black Peak, 32.91000, -108.162, 32.91000&deg;N / 108.162&deg;W
Black Arch Wall 5.8-5.12b, 36.10810, -115.4894, 36.10810&deg;N / 115.4894&deg;W
Black Mountain (Benton), 44.07390, -71.92, 44.07390&deg;N / 71.92&deg;W
Black Mountain, 41.00930, -122.9117, 41.00930&deg;N / 122.9117&deg;W
Black Mountain, 39.15613, -111.51514, 39.15613&deg;N / 111.51514&deg;W
Black Mountain (ID) Bonneville County, 43.11370, -111.1278, 43.11370&deg;N / 111.1278&deg;W
Black Mountain, 35.32803, -82.73171, 35.32803&deg;N / 82.73171&deg;W
Black Tusk, 46.91336, -121.48343, 46.91336&deg;N / 121.48343&deg;W
Black Pyramid Mountain, 45.07200, -109.399, 45.07200&deg;N / 109.399&deg;W
Black Mountain (Pinal County), 32.77720, -110.9619, 32.77720&deg;N / 110.9619&deg;W
Black Mountain (AZ), 33.81544, -111.94137, 33.81544&deg;N / 111.94137&deg;W
Black Mountain #6, 35.43774, -117.8159, 35.43774&deg;N / 117.8159&deg;W
Black Mountain, 36.80920, -118.3784, 36.80920&deg;N / 118.3784&deg;W
Black Mountain (Pershing County), 40.37046, -119.03545, 40.37046&deg;N / 119.03545&deg;W
Blackrock Mountain, 34.90300, -83.421, 34.90300&deg;N / 83.421&deg;W
Black Volcano, 35.13240, -106.77265, 35.13240&deg;N / 106.77265&deg;W
Blackrock Mountain, 34.90300, -83.421, 34.90300&deg;N / 83.421&deg;W
Black Mountain (OR), 45.21320, -119.2946, 45.21320&deg;N / 119.2946&deg;W
Mount Black Prince, 50.69444, -115.24167, 50.69444&deg;N / 115.24167&deg;W
Black Mountain, 48.08185, -121.20654, 48.08185&deg;N / 121.20654&deg;W
Blackfoot BM, 43.19750, -111.8748, 43.19750&deg;N / 111.8748&deg;W
Blackrock, 38.22000, -78.7406, 38.22000&deg;N / 78.7406&deg;W
Black Rock Mountain, 40.20464, -123.00928, 40.20464&deg;N / 123.00928&deg;W
Black Mountain (Black Hill), 38.46859, -111.11375, 38.46859&deg;N / 111.11375&deg;W
Black Velvet Wall 5.9-5.12a, 36.03500, -115.46639, 36.03500&deg;N / 115.46639&deg;W
Black Mountain (Clearwater Mountains), 46.87890, -115.5508, 46.87890&deg;N / 115.5508&deg;W
Black VABM, 38.35076, -111.09116, 38.35076&deg;N / 111.09116&deg;W
Black Mountain - Diamond Mountains, 40.11768, -120.31333, 40.11768&deg;N / 120.31333&deg;W
Black Mountain, 35.48980, -114.75182, 35.48980&deg;N / 114.75182&deg;W
Blackmon Peak, 44.05820, -114.6514, 44.05820&deg;N / 114.6514&deg;W
Black Tooth Mountain, 44.40280, -107.175, 44.40280&deg;N / 107.175&deg;W
Black Mountain #3, 35.16300, -118.5284, 35.16300&deg;N / 118.5284&deg;W
Blackrock (Big Meadows), 38.52806, -78.44222, 38.52806&deg;N / 78.44222&deg;W
Blackhead, 42.26771, -74.10465, 42.26771&deg;N / 74.10465&deg;W
Black Rocks, 39.57407, -77.59764, 39.57407&deg;N / 77.59764&deg;W
Black Mountain (KY), 36.91420, -82.8939, 36.91420&deg;N / 82.8939&deg;W
Black Mountain, 38.03900, -119.278, 38.03900&deg;N / 119.278&deg;W
Mount Blackmore, 45.44420, -111.0022, 45.44420&deg;N / 111.0022&deg;W
Black Rocks 5.7-5.13b, 37.15528, -113.60528, 37.15528&deg;N / 113.60528&deg;W
Blackhead Peak, 37.28881, -106.77414, 37.28881&deg;N / 106.77414&deg;W
Blackfoot Mountain (GNP), 48.58192, -113.66844, 48.58192&deg;N / 113.66844&deg;W
Black Mountain (Henrys Lake Mountains), 44.71070, -111.4144, 44.71070&deg;N / 111.4144&deg;W
Black Velvet Peak, 36.03500, -115.46639, 36.03500&deg;N / 115.46639&deg;W
Black Peak, 48.52341, -120.81575, 48.52341&deg;N / 120.81575&deg;W
Black Peak (ID), 42.13855, -113.12454, 42.13855&deg;N / 113.12454&deg;W
South Blacks Fork Peak, 40.77358, -110.5469, 40.77358&deg;N / 110.5469&deg;W
Blacks Mountain, 40.84915, -112.79665, 40.84915&deg;N / 112.79665&deg;W
Blandford Ski Area, 42.15424, -72.93274, 42.15424&deg;N / 72.93274&deg;W
Blackstock Knob, 35.73790, -82.319, 35.73790&deg;N / 82.319&deg;W
Bloomer Hill, 39.65169, -121.46286, 39.65169&deg;N / 121.46286&deg;W
Block Mountain, 39.07035, -111.48823, 39.07035&deg;N / 111.48823&deg;W
BLM Rock West Corridor, 5.9-5.11b, 42.04322, -113.71888, 42.04322&deg;N / 113.71888&deg;W
Blackrock Mountain, 35.05400, -83.151, 35.05400&deg;N / 83.151&deg;W
Blanco Mountain, 37.46570, -118.16298, 37.46570&deg;N / 118.16298&deg;W
Blue Angels Peak, 32.62190, -116.0906, 32.62190&deg;N / 116.0906&deg;W
Blåmann, 69.73500, 18.59440, 69.73500&deg;N / 18.59440&deg;E
Blue Bunch Mountain (ID), 44.47820, -115.2751, 44.47820&deg;N / 115.2751&deg;W
Blue Bunch Mountain (ID), 44.47820, -115.2751, 44.47820&deg;N / 115.2751&deg;W
Central Blacks Fork Peak, 40.77987, -110.54898, 40.77987&deg;N / 110.54898&deg;W
Piz Blas, 46.57585, 8.72589, 46.57585&deg;N / 8.72589&deg;E
Blob, 34.01823, -116.16403, 34.01823&deg;N / 116.16403&deg;W
Bloody Run Peak, 41.17171, -117.76692, 41.17171&deg;N / 117.76692&deg;W
Blacksmith Peak, 38.10700, -119.397, 38.10700&deg;N / 119.397&deg;W
Blackwall Mountain, 38.02851, -107.56471, 38.02851&deg;N / 107.56471&deg;W
Bleaklow Hill, 53.46300, -1.848, 53.46300&deg;N / 1.848&deg;W
Northwest Blacks Fork Peak, 40.79667, -110.55778, 40.79667&deg;N / 110.55778&deg;W
Mount Blaurock & Ervin Peak, 39.01130, -106.4535, 39.01130&deg;N / 106.4535&deg;W
Blowout Mountain, 47.13976, -121.30312, 47.13976&deg;N / 121.30312&deg;W
Blanc de Moming, 46.07370, 7.66420, 46.07370&deg;N / 7.66420&deg;E
Blankenhorn / Corno Bianco, 46.70364, 11.46067, 46.70364&deg;N / 11.46067&deg;E
Piramide Blanca, -16.30432, -68.17017, 16.30432&deg;S / 68.17017&deg;W
Blowdown Mountain, 47.51378, -121.72423, 47.51378&deg;N / 121.72423&deg;W
Blacktail Butte, 43.63521, -110.69299, 43.63521&deg;N / 110.69299&deg;W
Blanket Mountain Monashees, 50.75830, -118.2267, 50.75830&deg;N / 118.2267&deg;W
Blinnenhorn 3374m, 46.42561, 8.30832, 46.42561&deg;N / 8.30832&deg;E
North Blacks Fork Peak, 40.78818, -110.55125, 40.78818&deg;N / 110.55125&deg;W
Blauspitze, 47.01660, 12.60000, 47.01660&deg;N / 12.60000&deg;E
Blacktop Peak, 37.79371, -119.19587, 37.79371&deg;N / 119.19587&deg;W
Blåtind or Sleeping Soldier, 69.40261, 19.32306, 69.40261&deg;N / 19.32306&deg;E
Blob Rock (5.7-5.11), 40.48650, -106.7756, 40.48650&deg;N / 106.7756&deg;W
Bloomington Peak, 42.16999, -111.58964, 42.16999&deg;N / 111.58964&deg;W
Mount Blane, 50.72640, -115.0723, 50.72640&deg;N / 115.0723&deg;W
Blood Mountain, 34.73970, -83.9369, 34.73970&deg;N / 83.9369&deg;W
Bloody Mountain, 37.56050, -118.907, 37.56050&deg;N / 118.907&deg;W
Blauberge - Halserspitze, 47.59100, 11.78164, 47.59100&deg;N / 11.78164&deg;E
Blacktail Mountain, 48.01077, -114.36367, 48.01077&deg;N / 114.36367&deg;W
Blodgett Mountain, 46.27317, -114.46387, 46.27317&deg;N / 114.46387&deg;W
Blodgett Peak, 38.95890, -104.9073, 38.95890&deg;N / 104.9073&deg;W
Blasiuszeiger / Monte di Biagio, 46.71065, 11.01203, 46.71065&deg;N / 11.01203&deg;E
Blockhouse Buttress, 51.60410, -4.95972, 51.60410&deg;N / 4.95972&deg;W
Blanca Peak, 37.57770, -105.4859, 37.57770&deg;N / 105.4859&deg;W
Bogachiel Peak, 47.90537, -123.77742, 47.90537&deg;N / 123.77742&deg;W
Bogachiel Peak, 47.90537, -123.77742, 47.90537&deg;N / 123.77742&deg;W
Bluff Mountain (Madison County NC), 35.84113, -82.90635, 35.84113&deg;N / 82.90635&deg;W
Blue Jay Peak, 32.74230, -110.0296, 32.74230&deg;N / 110.0296&deg;W
Blue Donkey Point, 37.17980, -118.6098, 37.17980&deg;N / 118.6098&deg;W
Blue Mounds, 43.70263, -96.1853, 43.70263&deg;N / 96.1853&deg;W
Blue Ridge, 36.25900, -118.853, 36.25900&deg;N / 118.853&deg;W
Blue Peak, 33.56190, -109.2964, 33.56190&deg;N / 109.2964&deg;W
Blue Job Mountain, 43.31400, -71.116, 43.31400&deg;N / 71.116&deg;W
Boars Tusk, 41.96277, -109.1982, 41.96277&deg;N / 109.1982&deg;W
Blue Mountain (NV), 40.98699, -118.08303, 40.98699&deg;N / 118.08303&deg;W
Bare Bluff, 47.39823, -87.89286, 47.39823&deg;N / 87.89286&deg;W
Boca Hill, 39.38121, -120.11992, 39.38121&deg;N / 120.11992&deg;W
Bluegrass Butte, 48.14160, -121.5177, 48.14160&deg;N / 121.5177&deg;W
Bluff Mountain (Ashe County), 36.39100, -81.572, 36.39100&deg;N / 81.572&deg;W
Blue Mountain, 47.95850, -121.7223, 47.95850&deg;N / 121.7223&deg;W
Blue Hill, 40.93600, -76.617, 40.93600&deg;N / 76.617&deg;W
Blue Mountain, 38.92990, -105.3533, 38.92990&deg;N / 105.3533&deg;W
Bodie Mountain, 48.82730, -118.83269, 48.82730&deg;N / 118.83269&deg;W
The Bluffs, 41.05800, -107.7041, 41.05800&deg;N / 107.7041&deg;W
Blue Mountain, 48.18600, -121.9267, 48.18600&deg;N / 121.9267&deg;W
Bluebell Lake Peak, 40.69112, -110.5024, 40.69112&deg;N / 110.5024&deg;W
Bluff Mountain (and Alligator Back Cliffs), 36.42000, -81.186, 36.42000&deg;N / 81.186&deg;W
Mount Boardman North, 37.48969, -121.46934, 37.48969&deg;N / 121.46934&deg;W
Blue Mountain, 43.87250, -74.40139, 43.87250&deg;N / 74.40139&deg;W
Blue Bird, and Rattlesnake Mountains, 41.14110, -74.8589, 41.14110&deg;N / 74.8589&deg;W
Blüemlisalphorn, 46.48698, 7.77150, 46.48698&deg;N / 7.77150&deg;E
Blue Mountain (Olympics), 47.95475, -123.25958, 47.95475&deg;N / 123.25958&deg;W
Bluff Mountain, 45.74230, -122.1897, 45.74230&deg;N / 122.1897&deg;W
Blue Eagle Mountain (NV), 38.54140, -115.4717, 38.54140&deg;N / 115.4717&deg;W
Blue Mountain, 34.81260, -83.7553, 34.81260&deg;N / 83.7553&deg;W
Bobs Towers, 42.92426, -109.34964, 42.92426&deg;N / 109.34964&deg;W
Boarstone Mountain Sanctuary (Borestone), 45.37726, -69.40561, 45.37726&deg;N / 69.40561&deg;W
Boeses Weibele (Rosenkoepfl), 46.74220, 12.81140, 46.74220&deg;N / 12.81140&deg;E
Blue Knob, 40.28800, -78.562, 40.28800&deg;N / 78.562&deg;W
Bodón, 42.95655, -5.40733, 42.95655&deg;N / 5.40733&deg;W
Bluebell Knoll/Boulder Mtn (UT), 38.15940, -111.4993, 38.15940&deg;N / 111.4993&deg;W
Blue Lake Peak, 48.50665, -120.65718, 48.50665&deg;N / 120.65718&deg;W
Bobs Hill, 39.60318, -77.44125, 39.60318&deg;N / 77.44125&deg;W
Blue Mountain Peak, 18.04670, -76.5792, 18.04670&deg;N / 76.5792&deg;W
Blue Mountain (a.k.a. Cliff Ridge), 40.36360, -109.131, 40.36360&deg;N / 109.131&deg;W
Bluff Street Cracks 5.9+-5.10c, 37.12139, -113.58722, 37.12139&deg;N / 113.58722&deg;W
Bobtail Benchmark, 39.78130, -105.892, 39.78130&deg;N / 105.892&deg;W
Grosser Boesenstein, 47.44358, 14.40394, 47.44358&deg;N / 14.40394&deg;E
Blue Dick Benchmark, 37.50608, -117.59126, 37.50608&deg;N / 117.59126&deg;W
Boèseekofel / Piz da Lec de Boè, 46.52870, 11.84190, 46.52870&deg;N / 11.84190&deg;E
Boeses Weibl, 46.99760, 12.72300, 46.99760&deg;N / 12.72300&deg;E
Bluff Mountain, 38.44030, -78.4156, 38.44030&deg;N / 78.4156&deg;W
Olympic Range (WA), 47.68930, -123.403, 47.68930&deg;N / 123.403&deg;W
Bobotov Kuk, 43.12330, 19.03690, 43.12330&deg;N / 19.03690&deg;E
Santa Cruz Mountains, 37.08148, -122.02515, 37.08148&deg;N / 122.02515&deg;W
Bordeaux Mountain, 18.33390, -64.72792, 18.33390&deg;N / 64.72792&deg;W
Bonita Peak, 34.24990, -117.7426, 34.24990&deg;N / 117.7426&deg;W
Bohna Peak, 35.75814, -118.59526, 35.75814&deg;N / 118.59526&deg;W
SF Bay Area Peaks, 37.50000, -122, 37.50000&deg;N / 122&deg;W
Bóndi, 65.56670, -18.225, 65.56670&deg;N / 18.225&deg;W
Ross Peak, 43.72470, -115.0157, 43.72470&deg;N / 115.0157&deg;W
Boise Peak, 43.70040, -116.0939, 43.70040&deg;N / 116.0939&deg;W
Mount Bogart, 50.90830, -115.2416, 50.90830&deg;N / 115.2416&deg;W
Bomber Mountain, 44.36000, -107.173, 44.36000&deg;N / 107.173&deg;W
West Warrior Peak, 43.87580, -115.2996, 43.87580&deg;N / 115.2996&deg;W
Cerro Bonete, -41.20847, -71.66497, 41.20847&deg;S / 71.66497&deg;W
Mount Bolivar, 42.79170, -123.8363, 42.79170&deg;N / 123.8363&deg;W
Bonanza Benchmark, 40.57051, -111.47728, 40.57051&deg;N / 111.47728&deg;W
Boney Peak, 34.12028, -118.93093, 34.12028&deg;N / 118.93093&deg;W
Bomber Peak, 40.40417, -111.65778, 40.40417&deg;N / 111.65778&deg;W
Bohemia Mountain, 43.57429, -122.65694, 43.57429&deg;N / 122.65694&deg;W
Bonanza King, 41.09710, -122.6245, 41.09710&deg;N / 122.6245&deg;W
Le Bondidier, 42.64880, 0.62858, 42.64880&deg;N / 0.62858&deg;E
Boobe Hole Mountain, 38.69688, -111.74348, 38.69688&deg;N / 111.74348&deg;W
Bogatin, 46.28151, 13.73484, 46.28151&deg;N / 13.73484&deg;E
Grand Mountain, 43.85790, -115.4238, 43.85790&deg;N / 115.4238&deg;W
Bonanza Peak (NV), 36.35900, -115.746, 36.35900&deg;N / 115.746&deg;W
Bonito Peak, 36.44414, -105.11676, 36.44414&deg;N / 105.11676&deg;W
Bolan Mountain, 42.01840, -123.4545, 42.01840&deg;N / 123.4545&deg;W
Mount Bonaparte, 48.78540, -119.1223, 48.78540&deg;N / 119.1223&deg;W
Bonete, -32.65891, -70.08866, 32.65891&deg;S / 70.08866&deg;W
Bonete Grande, -27.85036, -68.81904, 27.85036&deg;S / 68.81904&deg;W
Mount Bond, 44.15300, -71.532, 44.15300&deg;N / 71.532&deg;W
Mount Bogda, 43.79660, 88.40220, 43.79660&deg;N / 88.40220&deg;E
Boreas Mountain, 39.40620, -105.9487, 39.40620&deg;N / 105.9487&deg;W
Bonneville Mountain, 45.21640, -117.2121, 45.21640&deg;N / 117.2121&deg;W
Bonticou Crag, 41.78881, -74.11851, 41.78881&deg;N / 74.11851&deg;W
Bonita Peak, 37.89703, -107.62392, 37.89703&deg;N / 107.62392&deg;W
Boggs Mountain, 38.81524, -122.68259, 38.81524&deg;N / 122.68259&deg;W
Booth Mountain, 39.70190, -106.3215, 39.70190&deg;N / 106.3215&deg;W
Bootjack Mountain, 47.57888, -120.96365, 47.57888&deg;N / 120.96365&deg;W
Aiguille de Bonalè, 45.82108, 7.06833, 45.82108&deg;N / 7.06833&deg;E
Two Point Mountain, 43.73732, -114.97568, 43.73732&deg;N / 114.97568&deg;W
Borel Hill, 37.32028, -122.19806, 37.32028&deg;N / 122.19806&deg;W
Bondcliff, 44.14080, -71.5409, 44.14080&deg;N / 71.5409&deg;W
Ma'ale Boqeq, 31.20223, 35.34714, 31.20223&deg;N / 35.34714&deg;E
Bojin Kuk, 44.34280, 15.40830, 44.34280&deg;N / 15.40830&deg;E
Borel Hill, 37.32028, -122.19806, 37.32028&deg;N / 122.19806&deg;W
Bonneville Peak, 42.76329, -112.14104, 42.76329&deg;N / 112.14104&deg;W
Bonete Chico, -28.0188, -68.756, 28.0188&deg;S / 68.756&deg;W
USGS Peak, 44.01339, -113.58181, 44.01339&deg;N / 113.58181&deg;W
Booby Prize (Unnamed 13312 ft), 38.99102, -106.59548, 38.99102&deg;N / 106.59548&deg;W
Bonanza Peak, 48.23810, -120.865, 48.23810&deg;N / 120.865&deg;W
Borah Peak, 44.13740, -113.781, 44.13740&deg;N / 113.781&deg;W
Bother Knob, 38.50700, -79.211, 38.50700&deg;N / 79.211&deg;W
Boulder Mountain, 44.88134, -115.93833, 44.88134&deg;N / 115.93833&deg;W
Boulder Gardens, 52.92686, -118.01454, 52.92686&deg;N / 118.01454&deg;W
Bowers Peak, 48.02063, -115.07565, 48.02063&deg;N / 115.07565&deg;W
Signal de Botrange, 50.50100, 6.08900, 50.50100&deg;N / 6.08900&deg;E
Bovine Dome 5.7-5.10c, 33.98100, -116.014, 33.98100&deg;N / 116.014&deg;W
Bosque Peak, 34.76600, -106.4293, 34.76600&deg;N / 106.4293&deg;W
Boulder Basin Peak, 32.84000, -113.91, 32.84000&deg;N / 113.91&deg;W
Boulder Point, 45.83780, -114.28825, 45.83780&deg;N / 114.28825&deg;W
Botzer / Il Capro, 46.96995, 11.30939, 46.96995&deg;N / 11.30939&deg;E
Boulder Peaks, 45.84721, -114.34191, 45.84721&deg;N / 114.34191&deg;W
Bowser Buttes, 47.97900, -121.25245, 47.97900&deg;N / 121.25245&deg;W
Mount Bowlen, 51.29778, -116.19965, 51.29778&deg;N / 116.19965&deg;W
Boundary Peak, 46.74100, -121.696, 46.74100&deg;N / 121.696&deg;W
Boucher Hill, 33.33480, -116.9196, 33.33480&deg;N / 116.9196&deg;W
Boulder Peak, 41.17736, -122.47756, 41.17736&deg;N / 122.47756&deg;W
Bowknot Bend, 38.60628, -110.03185, 38.60628&deg;N / 110.03185&deg;W
Boulder Peak (Boulder Benchmark), 48.32211, -121.32376, 48.32211&deg;N / 121.32376&deg;W
Boum, 42.68360, 0.55013, 42.68360&deg;N / 0.55013&deg;E
Boulder Ridge (Peak  6852), 47.80670, -123.10455, 47.80670&deg;N / 123.10455&deg;W
Bottle Peak, 39.90222, -105.93639, 39.90222&deg;N / 105.93639&deg;W
Mount Bosworth, 51.46390, -116.3306, 51.46390&deg;N / 116.3306&deg;W
Bowfell, 54.44804, -3.16642, 54.44804&deg;N / 3.16642&deg;W
Bornite Mountain, 48.13166, -121.62213, 48.13166&deg;N / 121.62213&deg;W
Borj, 36.05357, 51.55064, 36.05357&deg;N / 51.55064&deg;E
Boulder Peak, 43.83270, -114.5181, 43.83270&deg;N / 114.5181&deg;W
Mount Bourgeau, 51.13200, -115.775, 51.13200&deg;N / 115.775&deg;W
Bowback Mountain, 45.12732, -109.61712, 45.12732&deg;N / 109.61712&deg;W
Boundary COHP (Unnamed 7709), 48.84690, -116.5539, 48.84690&deg;N / 116.5539&deg;W
Boundary Peak, 35.76480, -106.3568, 35.76480&deg;N / 106.3568&deg;W
